{
  "kids": {
    "free": [
      {
        "name": "동탄 센트럴파크",
        "name_en": "Dongtan Central Park",
        "lat": 37.193413,
        "lng": 127.082682,
        "address": "경기도 화성시 동탄반석로 162",
        "price": "무료",
        "price_en": "Free",
        "parking": "동탄 센트럴파크 공영주차장 이용 가능"
      },
      {
        "name": "동탄 복합문화시설 (동탄 1신도시)",
        "name_en": "Dongtan Cultural Complex (Dongtan 1 New Town)",
        "lat": 37.192811,
        "lng": 127.073335,
        "address": "경기도 화성시 동탄반석로 135",
        "price": "무료",
        "price_en": "Free",
        "parking": "건물 내 주차장 이용 가능"
      },
      {
        "name": "동탄 솔빛공원",
        "name_en": "Dongtan Solbit Park",
        "lat": 37.174441,
        "lng": 127.056776,
        "address": "경기도 화성시 동탄순환대로 718",
        "price": "무료",
        "price_en": "Free",
        "parking": "공원 주변 노상 주차 또는 공영 주차장 이용"
      },
      {
        "name": "동탄호수공원 (루나쇼 분수쇼 시간 확인)",
        "name_en": "Dongtan Lake Park (Check Luna Show fountain times)",
        "lat": 37.170027,
        "lng": 127.046587,
        "address": "경기도 화성시 동탄대로 2길 32",
        "price": "무료",
        "price_en": "Free",
        "parking": "호수공원 공영 주차장 이용 가능"
      },
      {
        "name": "동탄 반석산 근린공원",
        "name_en": "Dongtan Banseoksan Neighborhood Park",
        "lat": 37.197567,
        "lng": 127.088439,
        "address": "경기도 화성시 동탄반석로 157",
        "price": "무료",
        "price_en": "Free",
        "parking": "공원 주변 주차 공간 이용"
      },
      {
        "name": "동탄 여울공원",
        "name_en": "Dongtan Yeoul Park",
        "lat": 37.188577,
        "lng": 127.059305,
        "address": "경기도 화성시 동탄대로 10길 30",
        "price": "무료",
        "price_en": "Free",
        "parking": "공원 인근 주차장 이용"
      }
    ],
    "paid": [
      {
        "name": "동탄 어린이 과학체험관 (예약 필수)",
        "name_en": "Dongtan Children's Science Center (Reservation Required)",
        "lat": 37.185722,
        "lng": 127.075702,
        "address": "경기도 화성시 동탄중앙로 217",
        "price": "유료 (성인 1,000원, 어린이 500원)",
        "price_en": "Paid (Adult 1,000 KRW, Child 500 KRW)",
        "parking": "건물 내 주차장 이용 가능"
      },
      {
        "name": "동탄 라크라크 (실내 놀이터)",
        "name_en": "Dongtan Laclac (Indoor Playground)",
        "lat": 37.198871,
        "lng": 127.064333,
        "address": "경기도 화성시 동탄대로 4길 29",
        "price": "시간당 요금 부과",
        "price_en": "Hourly Rate Applies",
        "parking": "건물 내 주차장 이용 가능"
      },
      {
        "name": "동탄 뽀로로 테마파크 (신라스테이 동탄)",
        "name_en": "Dongtan Pororo Theme Park (Shilla Stay Dongtan)",
        "lat": 37.186435,
        "lng": 127.061447,
        "address": "경기도 화성시 동탄대로 2길 28",
        "price": "시간당 요금 부과",
        "price_en": "Hourly Rate Applies",
        "parking": "호텔 주차장 이용 가능"
      },
      {
        "name": "동탄 챔피언 1250 (키즈 스포츠 체험)",
        "name_en": "Dongtan Champion 1250 (Kids Sports Experience)",
        "lat": 37.179986,
        "lng": 127.075895,
        "address": "경기도 화성시 동탄순환대로 129",
        "price": "시간당 요금 부과",
        "price_en": "Hourly Rate Applies",
        "parking": "건물 내 주차장 이용 가능"
      },
      {
        "name": "동탄 롯데시네마 (키즈관)",
        "name_en": "Dongtan Lotte Cinema (Kids Cinema)",
        "lat": 37.190219,
        "lng": 127.071017,
        "address": "경기도 화성시 동탄중앙로 243",
        "price": "영화 관람료",
        "price_en": "Movie Ticket Price",
        "parking": "건물 내 주차장 이용 가능"
      },
      {
        "name": "동탄 롤리팝 (키즈 카페)",
        "name_en": "Dongtan Lollipop (Kids Cafe)",
        "lat": 37.196702,
        "lng": 127.063617,
        "address": "경기도 화성시 동탄대로 4길 38",
        "price": "시간당 요금 부과",
        "price_en": "Hourly Rate Applies",
        "parking": "건물 내 주차장 이용 가능"
      }
    ]
  },
  "food": {
    "breakfast": [
      {
        "name": "할리스커피 동탄역점",
        "name_en": "Hollys Coffee Dongtan Station Branch",
        "lat": 37.190123,
        "lng": 127.070647,
        "address": "경기도 화성시 동탄중앙로 213",
        "menu": "아메리카노, 샌드위치, 베이커리",
        "menu_en": "Americano, Sandwich, Bakery",
        "parking": "건물 내 주차장 이용 가능"
      },
      {
        "name": "메가커피 동탄점",
        "name_en": "Mega Coffee Dongtan Branch",
        "lat": 37.195339,
        "lng": 127.065368,
        "address": "경기도 화성시 동탄대로 2길 26",
        "menu": "커피, 에그마요 토스트",
        "menu_en": "Coffee, Egg Mayo Toast",
        "parking": "건물 주변 노상 주차"
      },
      {
        "name": "스타벅스 동탄수원IC점",
        "name_en": "Starbucks Dongtan Suwon IC Branch",
        "lat": 37.210597,
        "lng": 127.070355,
        "address": "경기도 화성시 동탄대로 131",
        "menu": "아메리카노, 브런치 메뉴",
        "menu_en": "Americano, Brunch Menu",
        "parking": "건물 내 주차장 이용 가능"
      },
      {
        "name": "김밥천국 동탄점",
        "name_en": "Gimbap Cheonguk Dongtan Branch",
        "lat": 37.190562,
        "lng": 127.070591,
        "address": "경기도 화성시 동탄중앙로 235",
        "menu": "김밥, 라면, 떡볶이",
        "menu_en": "Gimbap, Ramyeon, Tteokbokki",
        "parking": "건물 주변 노상 주차"
      }
    ],
    "lunch": [
      {
        "name": "본가 동탄점",
        "name_en": "Bon Ga Dongtan Branch",
        "lat": 37.195344,
        "lng": 127.070686,
        "address": "경기도 화성시 동탄중앙로 239",
        "menu": "소불고기, 갈비",
        "menu_en": "Beef Bulgogi, Galbi",
        "parking": "건물 내 주차장 이용 가능"
      },
      {
        "name": "사계절 밥상",
        "name_en": "Four Seasons Bapsang",
        "lat": 37.196615,
        "lng": 127.063489,
        "address": "경기도 화성시 동탄대로 4길 32",
        "menu": "한정식, 백반",
        "menu_en": "Korean Set Meal, Baekban",
        "parking": "건물 내 주차장 이용 가능"
      },
      {
        "name": "오랜시간",
        "name_en": "Oren Sigan",
        "lat": 37.185959,
        "lng": 127.076255,
        "address": "경기도 화성시 동탄중앙로 219",
        "menu": "돌솥비빔밥, 냉면",
        "menu_en": "Dolsot Bibimbap, Naengmyeon",
        "parking": "건물 내 주차장 이용 가능"
      },
      {
        "name": "이화수전통육개장 동탄점",
        "name_en": "Ihwashu Traditional Yukgaejang Dongtan Branch",
        "lat": 37.189772,
        "lng": 127.071697,
        "address": "경기도 화성시 동탄중앙로 223",
        "menu": "육개장, 보쌈",
        "menu_en": "Yukgaejang, Bossam",
        "parking": "건물 내 주차장 이용 가능"
      }
    ],
    "dinner": [
      {
        "name": "삿포로 경",
        "name_en": "Sapporo Gyeong",
        "lat": 37.193179,
        "lng": 127.073216,
        "address": "경기도 화성시 동탄반석로 141",
        "menu": "일본식 가이세키 요리",
        "menu_en": "Japanese Kaiseki Cuisine",
        "parking": "건물 내 주차장 이용 가능"
      },
      {
        "name": "바삭함",
        "name_en": "Basakham",
        "lat": 37.188577,
        "lng": 127.059305,
        "address": "경기도 화성시 동탄대로 10길 30",
        "menu": "치킨, 맥주",
        "menu_en": "Chicken, Beer",
        "parking": "공원 인근 주차장 이용"
      },
      {
        "name": "청년어부",
        "name_en": "Cheongnyeon Eobu",
        "lat": 37.195916,
        "lng": 127.068786,
        "address": "경기도 화성시 동탄대로 2길 29",
        "menu": "회, 해산물",
        "menu_en": "Raw Fish, Seafood",
        "parking": "건물 내 주차장 이용 가능"
      },
      {
        "name": "마라공방 동탄점",
        "name_en": "Mala Gongbang Dongtan Branch",
        "lat": 37.192779,
        "lng": 127.073317,
        "address": "경기도 화성시 동탄반석로 141",
        "menu": "마라탕, 꿔바로우",
        "menu_en": "Mala Tang, Guo Bao Rou",
        "parking": "건물 내 주차장 이용 가능"
      }
    ]
  },
  "cafe": [
    {
      "name": "스타벅스 동탄역DT점",
      "name_en": "Starbucks Dongtan Station DT Branch",
      "lat": 37.189801,
      "lng": 127.070752,
      "address": "경기도 화성시 동탄중앙로 213",
      "feature": "드라이브 스루",
      "feature_en": "Drive-Thru",
      "parking": "건물 내 주차장 이용 가능"
    },
    {
      "name": "투썸플레이스 동탄호수공원점",
      "name_en": "A Twosome Place Dongtan Lake Park Branch",
      "lat": 37.170315,
      "lng": 127.047447,
      "address": "경기도 화성시 동탄대로 2길 32",
      "feature": "호수공원 뷰",
      "feature_en": "Lake Park View",
      "parking": "호수공원 공영 주차장 이용 가능"
    },
    {
      "name": "할리스커피 동탄숲점",
      "name_en": "Hollys Coffee Dongtan Sup Branch",
      "lat": 37.199217,
      "lng": 127.060899,
      "address": "경기도 화성시 동탄대로 2길 30",
      "feature": "넓은 좌석, 조용한 분위기",
      "feature_en": "Spacious Seating, Quiet Atmosphere",
      "parking": "건물 내 주차장 이용 가능"
    },
    {
      "name": "폴 바셋 동탄롯데백화점",
      "name_en": "Paul Bassett Dongtan Lotte Department Store",
      "lat": 37.190123,
      "lng": 127.071017,
      "address": "경기도 화성시 동탄중앙로 243",
      "feature": "백화점 내 위치, 다양한 디저트",
      "feature_en": "Located in Department Store, Variety of Desserts",
      "parking": "백화점 주차장 이용 가능"
    },
    {
      "name": "커피빈 동탄역점",
      "name_en": "The Coffee Bean Dongtan Station Branch",
      "lat": 37.190485,
      "lng": 127.070395,
      "address": "경기도 화성시 동탄중앙로 217",
      "feature": "역 근처, 편리한 접근성",
      "feature_en": "Near Station, Convenient Access",
      "parking": "건물 내 주차장 이용 가능"
    },
    {
      "name": "메가커피 동탄2신도시점",
      "name_en": "Mega Coffee Dongtan 2 New Town Branch",
      "lat": 37.179986,
      "lng": 127.075895,
      "address": "경기도 화성시 동탄순환대로 129",
      "feature": "가성비 좋은 커피",
      "feature_en": "Affordable Coffee",
      "parking": "건물 내 주차장 이용 가능"
    }
  ],
  "health": {
    "hospitals": [
      {
        "name": "동탄제일병원",
        "name_en": "Dongtan Jeil Hospital",
        "lat": 37.189786,
        "lng": 127.072437,
        "address": "경기도 화성시 동탄중앙로 231",
        "time": "평일 09:00 - 18:00, 토요일 09:00 - 13:00 (일요일, 공휴일 휴무)",
        "time_en": "Weekdays 09:00 - 18:00, Saturdays 09:00 - 13:00 (Closed Sundays & Public Holidays)",
        "info": "응급실 운영",
        "info_en": "Emergency Room Available"
      },
      {
        "name": "화성중앙병원",
        "name_en": "Hwaseong Jungang Hospital",
        "lat": 37.198698,
        "lng": 127.072367,
        "address": "경기도 화성시 동탄대로 2길 14",
        "time": "24시간 운영",
        "time_en": "24 Hours",
        "info": "달빛어린이병원 운영 (야간 및 공휴일)",
        "info_en": "Operates as a Moonlight Children's Hospital (Nights & Holidays)"
      },
      {
        "name": "동탄센트럴병원",
        "name_en": "Dongtan Central Hospital",
        "lat": 37.178881,
        "lng": 127.075179,
        "address": "경기도 화성시 동탄순환대로 133",
        "time": "평일 09:00 - 18:00 (야간/주말 응급진료 일부 가능)",
        "time_en": "Weekdays 09:00 - 18:00 (Limited night/weekend emergency care available)",
        "info": "외래진료 및 검진",
        "info_en": "Outpatient Care and Check-ups"
      }
    ],
    "pharmacies": [
      {
        "name": "늘편한약국",
        "name_en": "Neul Pyeonhan Pharmacy",
        "lat": 37.191805,
        "lng": 127.071327,
        "address": "경기도 화성시 동탄중앙로 239",
        "time": "평일 09:00 - 19:00, 토요일 09:00 - 14:00 (일요일 휴무)",
        "time_en": "Weekdays 09:00 - 19:00, Saturdays 09:00 - 14:00 (Closed Sundays)",
        "info": "일반 의약품 판매",
        "info_en": "Sells General Medicines"
      },
      {
        "name": "행복가득약국",
        "name_en": "Haengbok Gadeuk Pharmacy",
        "lat": 37.187933,
        "lng": 127.075895,
        "address": "경기도 화성시 동탄순환대로 117",
        "time": "평일 09:00 - 18:30, 토요일 09:00 - 13:00 (일요일, 공휴일 휴무)",
        "time_en": "Weekdays 09:00 - 18:30, Saturdays 09:00 - 13:00 (Closed Sundays & Public Holidays)",
        "info": "처방약 조제",
        "info_en": "Prescription Dispensing"
      },
      {
        "name": "동탄메디컬센터약국",
        "name_en": "Dongtan Medical Center Pharmacy",
        "lat": 37.187957,
        "lng": 127.075109,
        "address": "경기도 화성시 동탄순환대로 135",
        "time": "평일 09:00 - 18:00 (진료시간에 따라 변동)",
        "time_en": "Weekdays 09:00 - 18:00 (Varies with clinic hours)",
        "info": "병원 협진",
        "info_en": "Hospital Collaboration"
      }
    ]
  }
}