{
  "kids": {
    "free": [
      {
        "name": "동탄센트럴파크",
        "name_en": "Dongtan Central Park",
        "lat": 37.1853,
        "lng": 127.0808,
        "address": "경기도 화성시 동탄반석로 132",
        "price": "무료",
        "price_en": "Free",
        "parking": "주차장 이용 가능 (유료)"
      },
      {
        "name": "동탄문화공원",
        "name_en": "Dongtan Culture Park",
        "lat": 37.1965,
        "lng": 127.0723,
        "address": "경기도 화성시 동탄대로 431",
        "price": "무료",
        "price_en": "Free",
        "parking": "주차장 이용 가능 (무료)"
      },
      {
        "name": "청계호수공원",
        "name_en": "Cheonggye Lake Park",
        "lat": 37.1938,
        "lng": 127.0552,
        "address": "경기도 화성시 동탄대로 2412",
        "price": "무료",
        "price_en": "Free",
        "parking": "주차장 이용 가능 (무료)"
      },
      {
        "name": "동탄호수공원 어린이놀이터",
        "name_en": "Dongtan Lake Park Playground",
        "lat": 37.1941,
        "lng": 127.0535,
        "address": "경기도 화성시 동탄대로 2412",
        "price": "무료",
        "price_en": "Free",
        "parking": "동탄호수공원 주차장 이용"
      },
      {
        "name": "오산천 산책로 (동탄 구간)",
        "name_en": "Osan Stream Promenade (Dongtan Section)",
        "lat": 37.1912,
        "lng": 127.0695,
        "address": "경기도 화성시 반월동",
        "price": "무료",
        "price_en": "Free",
        "parking": "주변 노상 주차장 이용"
      },
      {
        "name": "동탄역 문화광장",
        "name_en": "Dongtan Station Cultural Plaza",
        "lat": 37.2049,
        "lng": 127.0878,
        "address": "경기도 화성시 동탄대로 514",
        "price": "무료",
        "price_en": "Free",
        "parking": "동탄역 환승주차장 이용 (유료)"
      }
    ],
    "paid": [
      {
        "name": "롯데백화점 동탄점 옥상정원",
        "name_en": "Lotte Department Store Dongtan Rooftop Garden",
        "lat": 37.2001,
        "lng": 127.0913,
        "address": "경기도 화성시 동탄역로 160",
        "price": "백화점 이용 시 무료",
        "price_en": "Free with Department Store Visit",
        "parking": "백화점 주차장 이용 (유료)"
      },
      {
        "name": "리틀다이노 동탄점",
        "name_en": "Little Dino Dongtan",
        "lat": 37.1915,
        "lng": 127.0789,
        "address": "경기도 화성시 동탄대로 492",
        "price": "시간당 요금 부과",
        "price_en": "Hourly Fee",
        "parking": "건물 내 주차 가능 (유료)"
      },
      {
        "name": "키즈맘센터 동탄점",
        "name_en": "Kid Mom Center Dongtan",
        "lat": 37.1902,
        "lng": 127.0858,
        "address": "경기도 화성시 동탄대로 484",
        "price": "시간당 요금 부과",
        "price_en": "Hourly Fee",
        "parking": "건물 내 주차 가능 (유료)"
      },
      {
        "name": "에코스쿨 동탄점",
        "name_en": "Eco School Dongtan",
        "lat": 37.1891,
        "lng": 127.0751,
        "address": "경기도 화성시 동탄대로 439",
        "price": "체험별 요금 부과",
        "price_en": "Fee per Experience",
        "parking": "건물 내 주차 가능 (유료)"
      },
      {
        "name": "챔피언1250 동탄점",
        "name_en": "Champion 1250 Dongtan",
        "lat": 37.1954,
        "lng": 127.0917,
        "address": "경기도 화성시 동탄기흥로 585",
        "price": "시간당 요금 부과",
        "price_en": "Hourly Fee",
        "parking": "건물 내 주차 가능 (유료)"
      },
      {
        "name": "상상노리 동탄점",
        "name_en": "Sangsang Nori Dongtan",
        "lat": 37.2009,
        "lng": 127.0832,
        "address": "경기도 화성시 동탄대로 500",
        "price": "시간당 요금 부과",
        "price_en": "Hourly Fee",
        "parking": "건물 내 주차 가능 (유료)"
      }
    ]
  },
  "food": {
    "breakfast": [
      {
        "name": "김가네 동탄점",
        "name_en": "Kimganae Dongtan",
        "lat": 37.1919,
        "lng": 127.0846,
        "address": "경기도 화성시 동탄대로 496",
        "menu": "김밥, 분식류",
        "menu_en": "Kimbap, Bunsik",
        "parking": "건물 내 주차장 이용 (유료)"
      },
      {
        "name": "와플반트 동탄점",
        "name_en": "Waffle Bant Dongtan",
        "lat": 37.1987,
        "lng": 127.0901,
        "address": "경기도 화성시 동탄대로 514",
        "menu": "와플, 커피",
        "menu_en": "Waffles, Coffee",
        "parking": "백화점 주차장 이용 (유료)"
      },
      {
        "name": "이삭토스트 동탄역점",
        "name_en": "Isak Toast Dongtan Station",
        "lat": 37.2048,
        "lng": 127.0888,
        "address": "경기도 화성시 동탄대로 514",
        "menu": "토스트, 커피",
        "menu_en": "Toast, Coffee",
        "parking": "동탄역 환승주차장 이용 (유료)"
      },
      {
        "name": "서브웨이 동탄역점",
        "name_en": "Subway Dongtan Station",
        "lat": 37.205,
        "lng": 127.0885,
        "address": "경기도 화성시 동탄대로 514",
        "menu": "샌드위치, 샐러드",
        "menu_en": "Sandwiches, Salads",
        "parking": "동탄역 환승주차장 이용 (유료)"
      }
    ],
    "lunch": [
      {
        "name": "본가 동탄점",
        "name_en": "Bon-ga Dongtan",
        "lat": 37.1912,
        "lng": 127.0861,
        "address": "경기도 화성시 동탄대로 492",
        "menu": "소갈비, 불고기",
        "menu_en": "Beef Ribs, Bulgogi",
        "parking": "건물 내 주차장 이용 (유료)"
      },
      {
        "name": "채선당 동탄점",
        "name_en": "Chaesundang Dongtan",
        "lat": 37.1899,
        "lng": 127.0854,
        "address": "경기도 화성시 동탄대로 484",
        "menu": "샤브샤브",
        "menu_en": "Shabu-shabu",
        "parking": "건물 내 주차장 이용 (유료)"
      },
      {
        "name": "명인만두 동탄점",
        "name_en": "Myungin Mandu Dongtan",
        "lat": 37.1975,
        "lng": 127.0732,
        "address": "경기도 화성시 동탄문화로 25",
        "menu": "만두, 쫄면",
        "menu_en": "Dumplings, Jjolmyeon",
        "parking": "건물 주차장 이용 (유료)"
      },
      {
        "name": "고봉민김밥 동탄2신도시점",
        "name_en": "Gobongmin Kimbap Dongtan 2 New Town",
        "lat": 37.1943,
        "lng": 127.0605,
        "address": "경기도 화성시 동탄대로 602",
        "menu": "김밥, 라면",
        "menu_en": "Kimbap, Ramyeon",
        "parking": "건물 주차장 이용 (유료)"
      }
    ],
    "dinner": [
      {
        "name": "삼겹살 무한리필",
        "name_en": "Samgyeopsal Muhan Ripeul",
        "lat": 37.1933,
        "lng": 127.0888,
        "address": "경기도 화성시 동탄반석로 204",
        "menu": "삼겹살 무한리필",
        "menu_en": "Unlimited Pork Belly",
        "parking": "건물 주차장 이용 (유료)"
      },
      {
        "name": "조선칼국수 동탄점",
        "name_en": "Joseon Kalguksu Dongtan",
        "lat": 37.1888,
        "lng": 127.0777,
        "address": "경기도 화성시 동탄대로 471",
        "menu": "칼국수, 만두",
        "menu_en": "Kalguksu, Dumplings",
        "parking": "건물 내 주차장 이용 (유료)"
      },
      {
        "name": "장어의꿈 동탄점",
        "name_en": "Jangeui Kkum Dongtan",
        "lat": 37.195,
        "lng": 127.0743,
        "address": "경기도 화성시 동탄대로 435",
        "menu": "민물장어 구이",
        "menu_en": "Freshwater Eel BBQ",
        "parking": "건물 주차장 이용 (유료)"
      },
      {
        "name": "동탄회관",
        "name_en": "Dongtan Hoegwan",
        "lat": 37.1905,
        "lng": 127.0835,
        "address": "경기도 화성시 동탄대로 488",
        "menu": "한정식",
        "menu_en": "Korean Set Menu",
        "parking": "건물 내 주차장 이용 (유료)"
      }
    ]
  },
  "cafe": [
    {
      "name": "스타벅스 동탄역점",
      "name_en": "Starbucks Dongtan Station",
      "lat": 37.2052,
      "lng": 127.0883,
      "address": "경기도 화성시 동탄대로 514",
      "feature": "넓은 좌석, 콘센트",
      "feature_en": "Spacious seating, power outlets",
      "parking": "동탄역 환승주차장 이용 (유료)"
    },
    {
      "name": "투썸플레이스 동탄호수공원점",
      "name_en": "Twosome Place Dongtan Lake Park",
      "lat": 37.1949,
      "lng": 127.053,
      "address": "경기도 화성시 동탄대로 2426",
      "feature": "호수 뷰, 베이커리",
      "feature_en": "Lake view, bakery",
      "parking": "동탄호수공원 주차장 이용"
    },
    {
      "name": "폴바셋 동탄점",
      "name_en": "Paul Bassett Dongtan",
      "lat": 37.1901,
      "lng": 127.0856,
      "address": "경기도 화성시 동탄대로 484",
      "feature": "넓은 공간, 맛있는 커피",
      "feature_en": "Spacious area, quality coffee",
      "parking": "건물 내 주차장 이용 (유료)"
    },
    {
      "name": "할리스커피 동탄센트럴파크점",
      "name_en": "Hollys Coffee Dongtan Central Park",
      "lat": 37.186,
      "lng": 127.081,
      "address": "경기도 화성시 동탄반석로 132",
      "feature": "공원 뷰, 편안한 분위기",
      "feature_en": "Park view, comfortable atmosphere",
      "parking": "동탄센트럴파크 주차장 이용 (유료)"
    },
    {
      "name": "메가커피 동탄역점",
      "name_en": "Mega Coffee Dongtan Station",
      "lat": 37.204,
      "lng": 127.0895,
      "address": "경기도 화성시 동탄대로 514",
      "feature": "가성비 좋은 커피, 테이크아웃",
      "feature_en": "Affordable coffee, take-out friendly",
      "parking": "동탄역 환승주차장 이용 (유료)"
    },
    {
      "name": "컴포즈커피 동탄점",
      "name_en": "Compose Coffee Dongtan",
      "lat": 37.1939,
      "lng": 127.0795,
      "address": "경기도 화성시 동탄대로 471",
      "feature": "다양한 메뉴, 합리적인 가격",
      "feature_en": "Diverse menu, reasonable prices",
      "parking": "건물 주차장 이용 (유료)"
    }
  ],
  "health": {
    "hospitals": [
      {
        "name": "동탄성심병원",
        "name_en": "Dongtan Hallym General Hospital",
        "lat": 37.1847,
        "lng": 127.0791,
        "address": "경기도 화성시 동탄지성로 22",
        "time": "24시간 운영",
        "time_en": "24 Hours",
        "info": "응급실 운영",
        "info_en": "Emergency Room Available"
      },
      {
        "name": "화성중앙병원",
        "name_en": "Hwaseong Central Hospital",
        "lat": 37.1885,
        "lng": 127.0533,
        "address": "경기도 화성시 동탄대로 2012",
        "time": "평일 09:00~18:00, 토요일 09:00~13:00",
        "time_en": "Weekdays 09:00-18:00, Saturdays 09:00-13:00",
        "info": "달빛어린이병원 지정 (평일 야간 및 주말 소아 진료)",
        "info_en": "Designated Moonlight Children's Hospital (Pediatric care on weekday nights and weekends)"
      },
      {
        "name": "다정병원",
        "name_en": "Dajeong Hospital",
        "lat": 37.1946,
        "lng": 127.091,
        "address": "경기도 화성시 동탄역로 132",
        "time": "평일 09:00~18:00",
        "time_en": "Weekdays 09:00-18:00",
        "info": "정형외과, 신경외과",
        "info_en": "Orthopedics, Neurosurgery"
      }
    ],
    "pharmacies": [
      {
        "name": "드림약국",
        "name_en": "Dream Pharmacy",
        "lat": 37.192,
        "lng": 127.0845,
        "address": "경기도 화성시 동탄대로 496",
        "time": "평일 09:00~20:00",
        "time_en": "Weekdays 09:00-20:00",
        "info": "주말 및 공휴일 휴무",
        "info_en": "Closed on weekends and holidays"
      },
      {
        "name": "행복약국",
        "name_en": "Haengbok Pharmacy",
        "lat": 37.1955,
        "lng": 127.073,
        "address": "경기도 화성시 동탄대로 435",
        "time": "매일 09:00~21:00",
        "time_en": "Daily 09:00-21:00",
        "info": "연중무휴",
        "info_en": "Open all year round"
      },
      {
        "name": "미래약국",
        "name_en": "Mirae Pharmacy",
        "lat": 37.185,
        "lng": 127.079,
        "address": "경기도 화성시 동탄지성로 22",
        "time": "24시간 운영 (병원 내)",
        "time_en": "24 Hours (Inside Hospital)",
        "info": "동탄성심병원 내 약국",
        "info_en": "Pharmacy located within Dongtan Hallym General Hospital"
      }
    ]
  }
}