{
  "kids": {
    "free": [
      {
        "name": "동탄센트럴파크",
        "name_en": "Dongtan Central Park",
        "lat": 37.2012,
        "lng": 127.0868,
        "address": "경기도 화성시 반송동 945",
        "price": "무료",
        "price_en": "Free",
        "parking": "주차장 이용 가능 (유료)"
      },
      {
        "name": "동탄호수공원",
        "name_en": "Dongtan Lake Park",
        "lat": 37.1802,
        "lng": 127.0759,
        "address": "경기도 화성시 동탄대로555번길 11",
        "price": "무료",
        "price_en": "Free",
        "parking": "주차장 이용 가능 (유료)"
      },
      {
        "name": "동탄문화광장",
        "name_en": "Dongtan Culture Plaza",
        "lat": 37.2045,
        "lng": 127.0902,
        "address": "경기도 화성시 동탄중앙로 235",
        "price": "무료",
        "price_en": "Free",
        "parking": "인근 공영 주차장 이용"
      },
      {
        "name": "동탄2신도시 근린공원",
        "name_en": "Dongtan 2 New Town Neighborhood Park",
        "lat": 37.196,
        "lng": 127.098,
        "address": "경기도 화성시 동탄순환대로 564",
        "price": "무료",
        "price_en": "Free",
        "parking": "공원 내 소규모 주차 공간"
      },
      {
        "name": "동탄찬물공원",
        "name_en": "Dongtan Chanmul Park",
        "lat": 37.1758,
        "lng": 127.081,
        "address": "경기도 화성시 동탄신리천로 312",
        "price": "무료",
        "price_en": "Free",
        "parking": "공원 인근 노상 주차"
      },
      {
        "name": "동탄솔빛공원",
        "name_en": "Dongtan Solbit Park",
        "lat": 37.1905,
        "lng": 127.0915,
        "address": "경기도 화성시 동탄대로 450",
        "price": "무료",
        "price_en": "Free",
        "parking": "공원 내 주차장 (유료)"
      }
    ],
    "paid": [
      {
        "name": "상상아트센터",
        "name_en": "SangSang Art Center",
        "lat": 37.2018,
        "lng": 127.088,
        "address": "경기도 화성시 동탄반석로 234",
        "price": "체험별 상이 (5,000원 ~ 20,000원)",
        "price_en": "Varies by experience (5,000 KRW ~ 20,000 KRW)",
        "parking": "건물 내 주차장 (유료)"
      },
      {
        "name": "키즈리움 동탄",
        "name_en": "Kidsrium Dongtan",
        "lat": 37.1922,
        "lng": 127.095,
        "address": "경기도 화성시 동탄대로 501",
        "price": "시간당 15,000원",
        "price_en": "15,000 KRW per hour",
        "parking": "건물 내 주차장 (유료)"
      },
      {
        "name": "뽀로로파크 동탄점",
        "name_en": "Pororo Park Dongtan",
        "lat": 37.189,
        "lng": 127.0785,
        "address": "경기도 화성시 동탄대로 486",
        "price": "18,000원 (종일권)",
        "price_en": "18,000 KRW (all-day pass)",
        "parking": "건물 내 주차장 (유료)"
      },
      {
        "name": "테마파크 정글",
        "name_en": "Theme Park Jungle",
        "lat": 37.1995,
        "lng": 127.07,
        "address": "경기도 화성시 동탄대로 287",
        "price": "25,000원 (평일 종일권)",
        "price_en": "25,000 KRW (weekday all-day pass)",
        "parking": "건물 내 주차장 (유료)"
      },
      {
        "name": "몬테소리 키즈카페",
        "name_en": "Montessori Kids Cafe",
        "lat": 37.183,
        "lng": 127.085,
        "address": "경기도 화성시 동탄대로 333",
        "price": "시간당 10,000원",
        "price_en": "10,000 KRW per hour",
        "parking": "건물 내 주차장 (유료)"
      },
      {
        "name": "점핑몬스터 동탄",
        "name_en": "Jumping Monster Dongtan",
        "lat": 37.197,
        "lng": 127.092,
        "address": "경기도 화성시 동탄대로 520",
        "price": "15,000원 (2시간)",
        "price_en": "15,000 KRW (2 hours)",
        "parking": "건물 내 주차장 (유료)"
      }
    ]
  },
  "food": {
    "breakfast": [
      {
        "name": "송탄부대찌개",
        "name_en": "Songtan Budae Jjigae",
        "lat": 37.203,
        "lng": 127.0875,
        "address": "경기도 화성시 동탄반석로 177",
        "menu": "부대찌개",
        "menu_en": "Spicy Sausage Stew",
        "parking": "매장 앞 잠시 주차 가능"
      },
      {
        "name": "김가네",
        "name_en": "Gimganae",
        "lat": 37.195,
        "lng": 127.076,
        "address": "경기도 화성시 동탄대로 495",
        "menu": "김밥, 떡볶이",
        "menu_en": "Kimbap, Tteokbokki",
        "parking": "건물 내 주차장 (유료)"
      },
      {
        "name": "엄마손칼국수",
        "name_en": "Eomma Son Kalguksu",
        "lat": 37.188,
        "lng": 127.082,
        "address": "경기도 화성시 동탄대로 387",
        "menu": "칼국수, 수제비",
        "menu_en": "Noodle Soup, Hand-pulled Dough Soup",
        "parking": "매장 앞 협소"
      },
      {
        "name": "본죽",
        "name_en": "Bonjuk",
        "lat": 37.191,
        "lng": 127.091,
        "address": "경기도 화성시 동탄대로 467",
        "menu": "전복죽, 야채죽",
        "menu_en": "Abalone Porridge, Vegetable Porridge",
        "parking": "건물 내 주차장 (유료)"
      }
    ],
    "lunch": [
      {
        "name": "마포갈매기",
        "name_en": "Mapo Galmaegi",
        "lat": 37.1925,
        "lng": 127.0985,
        "address": "경기도 화성시 동탄순환대로 707",
        "menu": "돼지갈비, 껍데기",
        "menu_en": "Pork Ribs, Pork Rind",
        "parking": "건물 내 주차장 (유료)"
      },
      {
        "name": "착한낙지",
        "name_en": "Chakhan Nakji",
        "lat": 37.185,
        "lng": 127.079,
        "address": "경기도 화성시 동탄대로 355",
        "menu": "낙지볶음",
        "menu_en": "Spicy Stir-fried Octopus",
        "parking": "건물 내 주차장 (유료)"
      },
      {
        "name": "화성시청 밥집",
        "name_en": "Hwaseong City Hall Bapjib",
        "lat": 37.19,
        "lng": 127.07,
        "address": "경기도 화성시 남양읍 남양로 600",
        "menu": "백반",
        "menu_en": "Set Meal (Baekban)",
        "parking": "넓은 공영 주차장"
      },
      {
        "name": "멘무샤",
        "name_en": "Menmusha",
        "lat": 37.198,
        "lng": 127.086,
        "address": "경기도 화성시 동탄중앙로 199",
        "menu": "라멘, 돈까스",
        "menu_en": "Ramen, Tonkatsu",
        "parking": "건물 내 주차장 (유료)"
      }
    ],
    "dinner": [
      {
        "name": "화성족발",
        "name_en": "Hwaseong Jokbal",
        "lat": 37.2005,
        "lng": 127.093,
        "address": "경기도 화성시 동탄중앙로 259",
        "menu": "족발",
        "menu_en": "Pig's Trotters",
        "parking": "건물 내 주차장 (유료)"
      },
      {
        "name": "팔공산",
        "name_en": "Palgongsan",
        "lat": 37.1915,
        "lng": 127.0885,
        "address": "경기도 화성시 동탄대로 469",
        "menu": "생선구이, 찌개",
        "menu_en": "Grilled Fish, Stew",
        "parking": "건물 내 주차장 (유료)"
      },
      {
        "name": "고기원칙",
        "name_en": "Gogi Wonchik",
        "lat": 37.187,
        "lng": 127.075,
        "address": "경기도 화성시 동탄대로 265",
        "menu": "삼겹살, 목살",
        "menu_en": "Pork Belly, Pork Neck",
        "parking": "건물 내 주차장 (유료)"
      },
      {
        "name": "신동궁",
        "name_en": "Shindunggug",
        "lat": 37.202,
        "lng": 127.081,
        "address": "경기도 화성시 동탄대로 183",
        "menu": "뼈해장국, 감자탕",
        "menu_en": "Pork Bone Hangover Soup, Gamjatang",
        "parking": "매장 앞 잠시 주차 가능"
      }
    ]
  },
  "cafe": [
    {
      "name": "스타벅스 동탄역점",
      "name_en": "Starbucks Dongtan Station Branch",
      "lat": 37.2025,
      "lng": 127.085,
      "address": "경기도 화성시 동탄대로 472",
      "feature": "아이와 함께 앉을 수 있는 넓은 테이블, 테이크아웃 용이",
      "feature_en": "Spacious tables suitable for children, easy for takeout",
      "parking": "건물 내 주차장 (유료, 일정 금액 이상 구매 시 할인)"
    },
    {
      "name": "할리스커피 동탄센트럴파크점",
      "name_en": "Hollys Coffee Dongtan Central Park Branch",
      "lat": 37.201,
      "lng": 127.087,
      "address": "경기도 화성시 동탄반석로 131",
      "feature": "공원 뷰, 아이 간식 메뉴",
      "feature_en": "Park view, offers kid-friendly snacks",
      "parking": "건물 내 주차장 (유료)"
    },
    {
      "name": "투썸플레이스 동탄호수공원점",
      "name_en": "Twosome Place Dongtan Lake Park Branch",
      "lat": 37.18,
      "lng": 127.0765,
      "address": "경기도 화성시 동탄대로555번길 13",
      "feature": "호수공원 옆, 유모차 이동 편리",
      "feature_en": "Adjacent to Lake Park, convenient for strollers",
      "parking": "건물 내 주차장 (유료)"
    },
    {
      "name": "이디야커피 동탄2신도시점",
      "name_en": "Ediya Coffee Dongtan 2 New Town Branch",
      "lat": 37.193,
      "lng": 127.096,
      "address": "경기도 화성시 동탄순환대로 684",
      "feature": "가성비 좋음, 아이와 함께 방문하기 무난",
      "feature_en": "Good value for money, generally suitable for visiting with children",
      "parking": "건물 내 주차장 (유료)"
    },
    {
      "name": "메가커피 동탄역",
      "name_en": "Mega Coffee Dongtan Station",
      "lat": 37.2028,
      "lng": 127.084,
      "address": "경기도 화성시 동탄대로 469",
      "feature": "빠른 테이크아웃, 아이 음료 메뉴",
      "feature_en": "Fast takeout, offers children's drinks",
      "parking": "매장 앞에 잠시 주차 가능 (협소)"
    },
    {
      "name": "앤하우스",
      "name_en": "N House",
      "lat": 37.1895,
      "lng": 127.0835,
      "address": "경기도 화성시 동탄대로 399",
      "feature": "아기 의자 구비, 아이와 함께 오기 편함",
      "feature_en": "Baby chairs available, comfortable for visits with children",
      "parking": "건물 내 주차장 (유료)"
    }
  ],
  "health": {
    "hospitals": [
      {
        "name": "가톨릭대학교 성모병원",
        "name_en": "The Catholic University of Korea St. Mary's Hospital",
        "lat": 37.1558,
        "lng": 126.972,
        "address": "경기도 부천시 소사로 100",
        "time": "24시간",
        "time_en": "24 hours",
        "info": "응급실 운영",
        "info_en": "Operates Emergency Room"
      },
      {
        "name": "한림대학교 동탄성심병원",
        "name_en": "Hallym University Dongtan Sacred Heart Hospital",
        "lat": 37.178,
        "lng": 127.069,
        "address": "경기도 화성시 동탄공원로291번길 22",
        "time": "24시간",
        "time_en": "24 hours",
        "info": "달빛어린이병원 운영 (야간/주말 소아 진료)",
        "info_en": "Operates 'Starlight Children's Hospital' (pediatric care during evenings/weekends)"
      },
      {
        "name": "동탄시티병원",
        "name_en": "Dongtan City Hospital",
        "lat": 37.1908,
        "lng": 127.0798,
        "address": "경기도 화성시 동탄대로 269",
        "time": "평일 09:00 - 18:00, 토요일 09:00 - 13:00",
        "time_en": "Weekdays 09:00 - 18:00, Saturdays 09:00 - 13:00",
        "info": "야간/일요일 진료 없음",
        "info_en": "No night/Sunday services"
      }
    ],
    "pharmacies": [
      {
        "name": "온누리약국",
        "name_en": "Onnuri Pharmacy",
        "lat": 37.2015,
        "lng": 127.0865,
        "address": "경기도 화성시 동탄중앙로 199",
        "time": "매일 09:00 - 21:00",
        "time_en": "Daily 09:00 - 21:00",
        "info": "주말 및 공휴일 정상 운영",
        "info_en": "Open on weekends and holidays"
      },
      {
        "name": "다나온약국",
        "name_en": "Danaon Pharmacy",
        "lat": 37.1945,
        "lng": 127.0975,
        "address": "경기도 화성시 동탄순환대로 698",
        "time": "평일 09:00 - 19:00, 토요일 09:00 - 15:00",
        "time_en": "Weekdays 09:00 - 19:00, Saturdays 09:00 - 15:00",
        "info": "일요일 휴무",
        "info_en": "Closed on Sundays"
      },
      {
        "name": "미래약국",
        "name_en": "Mirae Pharmacy",
        "lat": 37.1835,
        "lng": 127.0775,
        "address": "경기도 화성시 동탄대로 305",
        "time": "평일 09:00 - 20:00, 토요일 09:00 - 18:00",
        "time_en": "Weekdays 09:00 - 20:00, Saturdays 09:00 - 18:00",
        "info": "야간/일요일 운영 약국 확인 필요",
        "info_en": "Check for pharmacies open at night/on Sundays"
      }
    ]
  }
}