{
  "kids": {
    "free": [
      {
        "name": "동탄 센트럴 파크",
        "name_en": "Dongtan Central Park",
        "lat": 37.20679,
        "lng": 127.08764,
        "address": "경기도 화성시 동탄공원로27길 30",
        "price": "무료",
        "price_en": "Free",
        "parking": "공원 내 주차장 이용 가능 (유료)"
      },
      {
        "name": "동탄호수공원",
        "name_en": "Dongtan Lake Park",
        "lat": 37.16936,
        "lng": 127.07773,
        "address": "경기도 화성시 동탄대로 181",
        "price": "무료",
        "price_en": "Free",
        "parking": "공원 내 주차장 이용 가능 (유료)"
      },
      {
        "name": "동탄 외식타운 공원",
        "name_en": "Dongtan Food Town Park",
        "lat": 37.17745,
        "lng": 127.07553,
        "address": "경기도 화성시 동탄대로 169",
        "price": "무료",
        "price_en": "Free",
        "parking": "인근 공영주차장 이용"
      },
      {
        "name": "동탄 어린이 도서관",
        "name_en": "Dongtan Children's Library",
        "lat": 37.20821,
        "lng": 127.08934,
        "address": "경기도 화성시 동탄공원로 93",
        "price": "무료",
        "price_en": "Free",
        "parking": "도서관 옆 공영주차장 이용 (유료)"
      },
      {
        "name": "반석산 생태공원",
        "name_en": "Banseoksan Ecological Park",
        "lat": 37.22294,
        "lng": 127.09558,
        "address": "경기도 화성시 반석로 263",
        "price": "무료",
        "price_en": "Free",
        "parking": "공원 입구 주차장 이용 (무료)"
      },
      {
        "name": "솔빛마을 근린공원",
        "name_en": "Solbit Village Neighborhood Park",
        "lat": 37.19935,
        "lng": 127.07273,
        "address": "경기도 화성시 동탄문화로 125",
        "price": "무료",
        "price_en": "Free",
        "parking": "공원 인근 노상 주차 이용"
      }
    ],
    "paid": [
      {
        "name": "동탄 상상체험 키즈월드",
        "name_en": "Dongtan Sangsang Experience Kids World",
        "lat": 37.20875,
        "lng": 127.05562,
        "address": "경기도 화성시 동탄대로 132",
        "price": "18,000원 (2시간 기준)",
        "price_en": "18,000 KRW (2 hours)",
        "parking": "건물 내 주차장 이용 (유료)"
      },
      {
        "name": "트램폴린 파크 점핑몬스터 동탄점",
        "name_en": "Trampoline Park Jumping Monster Dongtan",
        "lat": 37.18545,
        "lng": 127.08054,
        "address": "경기도 화성시 동탄대로 469",
        "price": "13,000원 (1시간 기준)",
        "price_en": "13,000 KRW (1 hour)",
        "parking": "건물 내 주차장 이용 (유료)"
      },
      {
        "name": "키즈다쿵 동탄점",
        "name_en": "Kids Dakung Dongtan",
        "lat": 37.21495,
        "lng": 127.07014,
        "address": "경기도 화성시 동탄센트럴로 231",
        "price": "15,000원 (2시간 기준)",
        "price_en": "15,000 KRW (2 hours)",
        "parking": "건물 내 주차장 이용 (유료)"
      },
      {
        "name": "챔피언1250 동탄",
        "name_en": "Champion 1250 Dongtan",
        "lat": 37.20858,
        "lng": 127.07583,
        "address": "경기도 화성시 동탄반석로 178",
        "price": "20,000원 (2시간 기준)",
        "price_en": "20,000 KRW (2 hours)",
        "parking": "건물 내 주차장 이용 (유료)"
      },
      {
        "name": "뽀로로파크 동탄점",
        "name_en": "Pororo Park Dongtan",
        "lat": 37.17754,
        "lng": 127.06538,
        "address": "경기도 화성시 동탄대로 532",
        "price": "18,000원 (2시간 기준)",
        "price_en": "18,000 KRW (2 hours)",
        "parking": "건물 내 주차장 이용 (유료)"
      },
      {
        "name": "정글짐 키즈카페",
        "name_en": "Jungle Gym Kids Cafe",
        "lat": 37.19658,
        "lng": 127.08543,
        "address": "경기도 화성시 동탄기흥로 595",
        "price": "12,000원 (2시간 기준)",
        "price_en": "12,000 KRW (2 hours)",
        "parking": "건물 내 주차장 이용 (유료)"
      }
    ]
  },
  "food": {
    "breakfast": [
      {
        "name": "금강산 감자탕",
        "name_en": "Geumgangsan Gamjatang",
        "lat": 37.20635,
        "lng": 127.08495,
        "address": "경기도 화성시 동탄반석로 175",
        "menu": "감자탕, 뼈해장국",
        "menu_en": "Pork Bone Stew, Pork Bone Hangover Soup",
        "parking": "건물 뒤편 주차장 이용 (유료)"
      },
      {
        "name": "본죽 동탄점",
        "name_en": "Bonjuk Dongtan",
        "lat": 37.19556,
        "lng": 127.08462,
        "address": "경기도 화성시 동탄문화로 151",
        "menu": "각종 죽",
        "menu_en": "Various Juk (Porridge)",
        "parking": "건물 지하 주차장 이용 (유료)"
      },
      {
        "name": "일품 김밥",
        "name_en": "Ilpum Gimbap",
        "lat": 37.17565,
        "lng": 127.07645,
        "address": "경기도 화성시 동탄대로 199",
        "menu": "김밥, 라면",
        "menu_en": "Gimbap, Ramyeon",
        "parking": "인근 공영주차장 이용"
      },
      {
        "name": "할리스커피 동탄점",
        "name_en": "Hollys Coffee Dongtan",
        "lat": 37.20895,
        "lng": 127.08642,
        "address": "경기도 화성시 동탄공원로 75",
        "menu": "브런치 메뉴, 커피",
        "menu_en": "Brunch Menu, Coffee",
        "parking": "건물 내 주차장 이용 (유료)"
      }
    ],
    "lunch": [
      {
        "name": "수원 본갈비",
        "name_en": "Suwon Bon Galbi",
        "lat": 37.19605,
        "lng": 127.07018,
        "address": "경기도 화성시 동탄대로 102",
        "menu": "돼지갈비, 삼겹살",
        "menu_en": "Pork Ribs, Pork Belly",
        "parking": "건물 지하 주차장 이용 (유료)"
      },
      {
        "name": "명품 족발보쌈",
        "name_en": "Myeongpum Jokbal Bossam",
        "lat": 37.20818,
        "lng": 127.06415,
        "address": "경기도 화성시 동탄치동로 98",
        "menu": "족발, 보쌈",
        "menu_en": "Pig's Trotters, Bossam",
        "parking": "건물 주차장 이용 (유료)"
      },
      {
        "name": "가온길",
        "name_en": "Gaongil",
        "lat": 37.21605,
        "lng": 127.08025,
        "address": "경기도 화성시 동탄대로 622",
        "menu": "한정식",
        "menu_en": "Korean Set Menu",
        "parking": "건물 지하 주차장 이용 (유료)"
      },
      {
        "name": "신동궁 뼈해장국",
        "name_en": "Shindunggug Ppyeohaejangguk",
        "lat": 37.17295,
        "lng": 127.07853,
        "address": "경기도 화성시 동탄대로 177",
        "menu": "뼈해장국, 감자탕",
        "menu_en": "Pork Bone Hangover Soup, Gamjatang",
        "parking": "건물 앞 주차 가능"
      }
    ],
    "dinner": [
      {
        "name": "쉐우드",
        "name_en": "Sherwood",
        "lat": 37.19468,
        "lng": 127.07573,
        "address": "경기도 화성시 동탄대로 108",
        "menu": "스테이크, 파스타",
        "menu_en": "Steak, Pasta",
        "parking": "건물 지하 주차장 이용 (유료)"
      },
      {
        "name": "키와",
        "name_en": "Kiwa",
        "lat": 37.17728,
        "lng": 127.07543,
        "address": "경기도 화성시 동탄대로 167",
        "menu": "퓨전 한정식",
        "menu_en": "Fusion Korean Set Menu",
        "parking": "건물 주차장 이용 (유료)"
      },
      {
        "name": "장터 설렁탕",
        "name_en": "Jangteo Seolleongtang",
        "lat": 37.20585,
        "lng": 127.07595,
        "address": "경기도 화성시 동탄반석로 176",
        "menu": "설렁탕, 갈비탕",
        "menu_en": "Seolleongtang, Galbitang",
        "parking": "건물 앞 주차 가능"
      },
      {
        "name": "미스터 오징어",
        "name_en": "Mister Ojingeo",
        "lat": 37.18534,
        "lng": 127.07998,
        "address": "경기도 화성시 동탄대로 471",
        "menu": "오징어 통찜, 해물 요리",
        "menu_en": "Steamed Whole Squid, Seafood Dishes",
        "parking": "건물 내 주차장 이용 (유료)"
      }
    ]
  },
  "cafe": [
    {
      "name": "카페 릴리",
      "name_en": "Cafe Lily",
      "lat": 37.20638,
      "lng": 127.08758,
      "address": "경기도 화성시 동탄공원로27길 18",
      "feature": "유아용 의자, 아기 수저 구비",
      "feature_en": "High chairs, baby cutlery available",
      "parking": "카페 앞 또는 인근 공영주차장 이용"
    },
    {
      "name": "스타벅스 동탄역점",
      "name_en": "Starbucks Dongtan Station",
      "lat": 37.20735,
      "lng": 127.08655,
      "address": "경기도 화성시 동탄대로 496",
      "feature": "넓은 공간, 수유실",
      "feature_en": "Spacious area, nursing room",
      "parking": "건물 지하 주차장 이용 (유료)"
    },
    {
      "name": "투썸플레이스 동탄센트럴파크점",
      "name_en": "Twosome Place Dongtan Central Park",
      "lat": 37.20715,
      "lng": 127.08765,
      "address": "경기도 화성시 동탄공원로 73",
      "feature": "키즈 메뉴, 유아용 식기",
      "feature_en": "Kids menu, child-friendly tableware",
      "parking": "건물 내 주차장 이용 (유료)"
    },
    {
      "name": "커피빈 동탄센트럴점",
      "name_en": "The Coffee Bean Dongtan Central",
      "lat": 37.20885,
      "lng": 127.08935,
      "address": "경기도 화성시 동탄공원로 95",
      "feature": "아늑한 분위기, 가족석",
      "feature_en": "Cozy atmosphere, family seating",
      "parking": "건물 지하 주차장 이용 (유료)"
    },
    {
      "name": "메가커피 동탄반석로점",
      "name_en": "Mega Coffee Dongtan Banseokro",
      "lat": 37.20805,
      "lng": 127.07593,
      "address": "경기도 화성시 동탄반석로 179",
      "feature": "테이크아웃 중심, 간단한 간식",
      "feature_en": "Take-out focused, light snacks",
      "parking": "건물 앞 주차 공간 이용"
    },
    {
      "name": "앤하우스",
      "name_en": "N House",
      "lat": 37.17755,
      "lng": 127.07533,
      "address": "경기도 화성시 동탄대로 169",
      "feature": "아이들을 위한 놀이 공간",
      "feature_en": "Play area for children",
      "parking": "건물 주차장 이용 (유료)"
    }
  ],
  "health": {
    "hospitals": [
      {
        "name": "동탄 제일병원",
        "name_en": "Dongtan Jeil Hospital",
        "lat": 37.18605,
        "lng": 127.07398,
        "address": "경기도 화성시 동탄대로 470",
        "time": "평일 09:00~18:00, 토요일 09:00~13:00 (일요일 휴진)",
        "time_en": "Weekdays 09:00~18:00, Saturdays 09:00~13:00 (Closed Sundays)",
        "info": "소아청소년과, 내과 등 운영",
        "info_en": "Operates Pediatrics, Internal Medicine, etc."
      },
      {
        "name": "아동병원",
        "name_en": "Kids Hospital",
        "lat": 37.20615,
        "lng": 127.08415,
        "address": "경기도 화성시 동탄반석로 173",
        "time": "평일 08:30~18:00, 토요일 08:30~15:00 (일요일, 공휴일 휴진)",
        "time_en": "Weekdays 08:30~18:00, Saturdays 08:30~15:00 (Closed Sundays and Holidays)",
        "info": "달빛어린이병원 지정을 받은 곳",
        "info_en": "Designated as a Moonlight Children's Hospital"
      },
      {
        "name": "동탄 머리사랑 병원",
        "name_en": "Dongtan Meorisarang Hospital",
        "lat": 37.19728,
        "lng": 127.07323,
        "address": "경기도 화성시 동탄대로 100",
        "time": "평일 09:00~18:00, 토요일 09:00~13:00 (일요일, 공휴일 휴진)",
        "time_en": "Weekdays 09:00~18:00, Saturdays 09:00~13:00 (Closed Sundays and Holidays)",
        "info": "정신건강의학과, 소아청소년과 운영",
        "info_en": "Operates Psychiatry, Pediatrics"
      }
    ],
    "pharmacies": [
      {
        "name": "늘푸른약국",
        "name_en": "Neulpureun Pharmacy",
        "lat": 37.20795,
        "lng": 127.08625,
        "address": "경기도 화성시 동탄대로 498",
        "time": "평일 09:00~19:00, 토요일 09:00~15:00 (일요일 휴무)",
        "time_en": "Weekdays 09:00~19:00, Saturdays 09:00~15:00 (Closed Sundays)",
        "info": "일반 의약품 판매",
        "info_en": "Sells general medicines"
      },
      {
        "name": "동탄역 약국",
        "name_en": "Dongtan Station Pharmacy",
        "lat": 37.20755,
        "lng": 127.08645,
        "address": "경기도 화성시 동탄대로 496",
        "time": "평일 08:00~20:00, 토요일 09:00~19:00, 일요일 10:00~18:00",
        "time_en": "Weekdays 08:00~20:00, Saturdays 09:00~19:00, Sundays 10:00~18:00",
        "info": "연중무휴",
        "info_en": "Open year-round"
      },
      {
        "name": "건강을 약속하는 약국",
        "name_en": "Healthy Promise Pharmacy",
        "lat": 37.19585,
        "lng": 127.08422,
        "address": "경기도 화성시 동탄문화로 155",
        "time": "평일 09:00~19:00, 토요일 09:00~17:00 (일요일 휴무)",
        "time_en": "Weekdays 09:00~19:00, Saturdays 09:00~17:00 (Closed Sundays)",
        "info": "처방 조제 및 일반 의약품 판매",
        "info_en": "Prescription dispensing and sale of general medicines"
      }
    ]
  }
}