{
  "kids": {
    "free": [
      {
        "name": "동탄 센트럴 파크",
        "name_en": "Dongtan Central Park",
        "lat": 37.2043,
        "lng": 127.0825,
        "address": "경기도 화성시 동탄반석로 118",
        "price": "무료",
        "price_en": "Free",
        "parking": "공영주차장 이용 가능 (유료)"
      },
      {
        "name": "동탄호수공원",
        "name_en": "Dongtan Lake Park",
        "lat": 37.1848,
        "lng": 127.0959,
        "address": "경기도 화성시 동탄대로551번길 15",
        "price": "무료",
        "price_en": "Free",
        "parking": "동탄호수공원 공영주차장 이용 가능 (유료)"
      },
      {
        "name": "동탄 문화광장",
        "name_en": "Dongtan Culture Plaza",
        "lat": 37.2043,
        "lng": 127.0825,
        "address": "경기도 화성시 반송동 89-7",
        "price": "무료",
        "price_en": "Free",
        "parking": "주변 공영 주차장 이용 가능 (유료)"
      },
      {
        "name": "동탄 제1신도시 어린이 도서관",
        "name_en": "Dongtan 1 New Town Children's Library",
        "lat": 37.2075,
        "lng": 127.0811,
        "address": "경기도 화성시 동탄반석로 137",
        "price": "무료",
        "price_en": "Free",
        "parking": "도서관 주차장 이용 가능 (유료)"
      },
      {
        "name": "동탄 제2신도시 어린이 도서관",
        "name_en": "Dongtan 2 New Town Children's Library",
        "lat": 37.1951,
        "lng": 127.0949,
        "address": "경기도 화성시 동탄순환대로 145",
        "price": "무료",
        "price_en": "Free",
        "parking": "도서관 주차장 이용 가능 (유료)"
      },
      {
        "name": "동탄 솔빛마을 공원",
        "name_en": "Dongtan Solbit Village Park",
        "lat": 37.2132,
        "lng": 127.0774,
        "address": "경기도 화성시 동탄기흥로277번길 25",
        "price": "무료",
        "price_en": "Free",
        "parking": "공원 인근 노상 주차 또는 공영주차장 이용 (유료)"
      }
    ],
    "paid": [
      {
        "name": "뽀로로 테마파크 동탄",
        "name_en": "Pororo Theme Park Dongtan",
        "lat": 37.1941,
        "lng": 127.0838,
        "address": "경기도 화성시 동탄대로551번길 25",
        "price": "18,000원 (주중 1인 기준)",
        "price_en": "KRW 18,000 (per person on weekdays)",
        "parking": "롯데백화점 동탄점 주차장 이용 (구매 금액별 차등 할인)"
      },
      {
        "name": "키즈다쿵 동탄",
        "name_en": "Kids Dakung Dongtan",
        "lat": 37.1937,
        "lng": 127.0844,
        "address": "경기도 화성시 동탄대로551번길 30",
        "price": "15,000원 (1시간 기준)",
        "price_en": "KRW 15,000 (per hour)",
        "parking": "센터원 빌딩 주차장 이용 (일부 지원)"
      },
      {
        "name": "챔피언1250 동탄",
        "name_en": "Champion 1250 Dongtan",
        "lat": 37.1925,
        "lng": 127.0799,
        "address": "경기도 화성시 동탄대로 198",
        "price": "24,000원 (2시간 기준)",
        "price_en": "KRW 24,000 (per 2 hours)",
        "parking": "이마트 동탄점 주차장 이용 (구매 금액별 차등 할인)"
      },
      {
        "name": "상상노리 동탄",
        "name_en": "Sangsangnori Dongtan",
        "lat": 37.1935,
        "lng": 127.0845,
        "address": "경기도 화성시 동탄대로551번길 25",
        "price": "18,000원 (1시간 30분 기준)",
        "price_en": "KRW 18,000 (per 1.5 hours)",
        "parking": "롯데백화점 동탄점 주차장 이용 (구매 금액별 차등 할인)"
      },
      {
        "name": "뽀로로 3D 극장",
        "name_en": "Pororo 3D Theater",
        "lat": 37.1941,
        "lng": 127.0838,
        "address": "경기도 화성시 동탄대로551번길 25",
        "price": "10,000원 (1인 기준)",
        "price_en": "KRW 10,000 (per person)",
        "parking": "롯데백화점 동탄점 주차장 이용 (구매 금액별 차등 할인)"
      },
      {
        "name": "키즈빌리지 동탄",
        "name_en": "Kids Village Dongtan",
        "lat": 37.1961,
        "lng": 127.0832,
        "address": "경기도 화성시 동탄대로 198",
        "price": "15,000원 (1시간 기준)",
        "price_en": "KRW 15,000 (per hour)",
        "parking": "이마트 동탄점 주차장 이용 (구매 금액별 차등 할인)"
      }
    ]
  },
  "food": {
    "breakfast": [
      {
        "name": "오봉집 동탄점",
        "name_en": "Obongjip Dongtan",
        "lat": 37.1994,
        "lng": 127.0774,
        "address": "경기도 화성시 동탄대로 485",
        "menu": "직화쭈꾸미",
        "menu_en": "Spicy Stir-fried Baby Octopus",
        "parking": "상가 주차장 이용 가능 (유료)"
      },
      {
        "name": "김가네 김밥 동탄역점",
        "name_en": "Gimgane Gimbap Dongtan Station",
        "lat": 37.2022,
        "lng": 127.0835,
        "address": "경기도 화성시 동탄지성로 72",
        "menu": "김밥, 라면",
        "menu_en": "Gimbap, Ramyeon",
        "parking": "주변 상가 주차장 이용 (유료)"
      },
      {
        "name": "본죽 동탄점",
        "name_en": "Bonjuk Dongtan",
        "lat": 37.2015,
        "lng": 127.0788,
        "address": "경기도 화성시 동탄대로 511",
        "menu": "다양한 죽",
        "menu_en": "Various Porridge",
        "parking": "건물 주차장 이용 (유료)"
      },
      {
        "name": "서브웨이 동탄점",
        "name_en": "Subway Dongtan",
        "lat": 37.2043,
        "lng": 127.0825,
        "address": "경기도 화성시 동탄반석로 125",
        "menu": "샌드위치",
        "menu_en": "Sandwiches",
        "parking": "주변 공영 주차장 이용 (유료)"
      }
    ],
    "lunch": [
      {
        "name": "화평동왕냉면 동탄본점",
        "name_en": "Hwapyungdong Wang Naengmyeon Dongtan Main Branch",
        "lat": 37.2002,
        "lng": 127.0799,
        "address": "경기도 화성시 동탄대로 506",
        "menu": "왕냉면, 만두",
        "menu_en": "King Naengmyeon, Mandu",
        "parking": "상가 주차장 이용 가능 (유료)"
      },
      {
        "name": "바삭마차",
        "name_en": "Basak Macha",
        "lat": 37.2057,
        "lng": 127.0785,
        "address": "경기도 화성시 동탄문화로 23",
        "menu": "튀김, 떡볶이",
        "menu_en": "Fried Food, Tteokbokki",
        "parking": "주차장 없음, 인근 유료 주차장 이용"
      },
      {
        "name": "본가",
        "name_en": "Bon Ga",
        "lat": 37.1998,
        "lng": 127.077,
        "address": "경기도 화성시 동탄대로 471",
        "menu": "불고기, 비빔밥",
        "menu_en": "Bulgogi, Bibimbap",
        "parking": "건물 주차장 이용 (유료)"
      },
      {
        "name": "시리얼",
        "name_en": "Cereal",
        "lat": 37.1939,
        "lng": 127.0839,
        "address": "경기도 화성시 동탄대로551번길 30",
        "menu": "파스타, 리조또",
        "menu_en": "Pasta, Risotto",
        "parking": "센터원 빌딩 주차장 이용 (일부 지원)"
      }
    ],
    "dinner": [
      {
        "name": "화통집 동탄점",
        "name_en": "Hwatongjip Dongtan",
        "lat": 37.2032,
        "lng": 127.0829,
        "address": "경기도 화성시 동탄대로 541",
        "menu": "통삼겹살, 통목살",
        "menu_en": "Pork Belly, Pork Neck",
        "parking": "건물 주차장 이용 (유료)"
      },
      {
        "name": "교촌치킨 동탄점",
        "name_en": "Kyochon Chicken Dongtan",
        "lat": 37.2024,
        "lng": 127.0836,
        "address": "경기도 화성시 동탄지성로 76",
        "menu": "치킨",
        "menu_en": "Chicken",
        "parking": "주변 상가 주차장 이용 (유료)"
      },
      {
        "name": "육대장 동탄점",
        "name_en": "Yukdaejang Dongtan",
        "lat": 37.1981,
        "lng": 127.0777,
        "address": "경기도 화성시 동탄대로 475",
        "menu": "육개장, 보쌈",
        "menu_en": "Yukgaejang, Bossam",
        "parking": "건물 주차장 이용 (유료)"
      },
      {
        "name": "마포갈매기 동탄점",
        "name_en": "Mapo Galmaegi Dongtan",
        "lat": 37.2043,
        "lng": 127.0825,
        "address": "경기도 화성시 동탄반석로 125",
        "menu": "돼지갈비, 막창",
        "menu_en": "Pork Ribs, Gopchang",
        "parking": "주변 공영 주차장 이용 (유료)"
      }
    ]
  },
  "cafe": [
    {
      "name": "스타벅스 동탄역점",
      "name_en": "Starbucks Dongtan Station",
      "lat": 37.2023,
      "lng": 127.0834,
      "address": "경기도 화성시 동탄지성로 72",
      "feature": "넓은 좌석, 콘센트 구비",
      "feature_en": "Spacious seating, power outlets available",
      "parking": "주변 상가 주차장 이용 (유료)"
    },
    {
      "name": "투썸플레이스 동탄역점",
      "name_en": "A Twosome Place Dongtan Station",
      "lat": 37.2018,
      "lng": 127.0833,
      "address": "경기도 화성시 동탄대로 549",
      "feature": "디저트 메뉴 다양, 조용함",
      "feature_en": "Wide variety of desserts, quiet atmosphere",
      "parking": "건물 주차장 이용 (유료)"
    },
    {
      "name": "폴 바셋 동탄점",
      "name_en": "Paul Bassett Dongtan",
      "lat": 37.1999,
      "lng": 127.0772,
      "address": "경기도 화성시 동탄대로 473",
      "feature": "라떼 맛집, 편안한 분위기",
      "feature_en": "Famous for lattes, comfortable ambiance",
      "parking": "건물 주차장 이용 (유료)"
    },
    {
      "name": "앤트러사이트 동탄",
      "name_en": "Anthracite Dongtan",
      "lat": 37.2061,
      "lng": 127.0803,
      "address": "경기도 화성시 동탄신통로 218",
      "feature": "독특한 인테리어, 넓은 공간",
      "feature_en": "Unique interior design, spacious area",
      "parking": "건물 주차장 이용 (유료)"
    },
    {
      "name": "할리스커피 동탄점",
      "name_en": "Hollys Coffee Dongtan",
      "lat": 37.1938,
      "lng": 127.0839,
      "address": "경기도 화성시 동탄대로551번길 30",
      "feature": "편안한 좌석, 와이파이 무료",
      "feature_en": "Comfortable seating, free Wi-Fi",
      "parking": "센터원 빌딩 주차장 이용 (일부 지원)"
    },
    {
      "name": "이디야커피 동탄역점",
      "name_en": "Ediya Coffee Dongtan Station",
      "lat": 37.2019,
      "lng": 127.0834,
      "address": "경기도 화성시 동탄대로 549",
      "feature": "합리적인 가격, 간단한 디저트",
      "feature_en": "Affordable prices, simple desserts",
      "parking": "건물 주차장 이용 (유료)"
    }
  ],
  "health": {
    "hospitals": [
      {
        "name": "한림대학교 동탄성심병원",
        "name_en": "Hallym University Dongtan Sacred Heart Hospital",
        "lat": 37.1974,
        "lng": 127.0749,
        "address": "경기도 화성시 가곡로 150",
        "time": "24시간 응급실 운영",
        "time_en": "24-hour emergency room operation",
        "info": "종합병원, 달빛어린이병원 운영",
        "info_en": "General hospital, operates as Moonlight Children's Hospital"
      },
      {
        "name": "동탄제일병원",
        "name_en": "Dongtan Jeil Hospital",
        "lat": 37.1999,
        "lng": 127.0762,
        "address": "경기도 화성시 동탄대로 495",
        "time": "평일 09:00 ~ 18:00, 토요일 09:00 ~ 13:00",
        "time_en": "Weekdays 09:00 ~ 18:00, Saturdays 09:00 ~ 13:00",
        "info": "산부인과, 소아청소년과 전문",
        "info_en": "Specializes in Obstetrics & Gynecology, Pediatrics & Adolescent Medicine"
      },
      {
        "name": "화성시 동탄보건소",
        "name_en": "Hwaseong City Dongtan Public Health Center",
        "lat": 37.2037,
        "lng": 127.0806,
        "address": "경기도 화성시 동탄반석로 100",
        "time": "평일 09:00 ~ 18:00",
        "time_en": "Weekdays 09:00 ~ 18:00",
        "info": "건강검진, 예방접종 등",
        "info_en": "Health check-ups, vaccinations, etc."
      }
    ],
    "pharmacies": [
      {
        "name": "동탄행복약국",
        "name_en": "Dongtan Haengbok Pharmacy",
        "lat": 37.2025,
        "lng": 127.0836,
        "address": "경기도 화성시 동탄지성로 72",
        "time": "평일 09:00 ~ 21:00, 토요일 09:00 ~ 20:00",
        "time_en": "Weekdays 09:00 ~ 21:00, Saturdays 09:00 ~ 20:00",
        "info": "상대적으로 늦게까지 운영",
        "info_en": "Operates relatively late"
      },
      {
        "name": "동탄미래약국",
        "name_en": "Dongtan Mirae Pharmacy",
        "lat": 37.1997,
        "lng": 127.0771,
        "address": "경기도 화성시 동탄대로 471",
        "time": "평일 09:00 ~ 19:00, 토요일 09:00 ~ 14:00",
        "time_en": "Weekdays 09:00 ~ 19:00, Saturdays 09:00 ~ 14:00",
        "info": "일요일 휴무",
        "info_en": "Closed on Sundays"
      },
      {
        "name": "한림약국",
        "name_en": "Hallym Pharmacy",
        "lat": 37.1975,
        "lng": 127.075,
        "address": "경기도 화성시 가곡로 150",
        "time": "24시간 운영 (병원 내)",
        "time_en": "24-hour operation (within the hospital)",
        "info": "한림대학교 동탄성심병원 내 위치",
        "info_en": "Located inside Hallym University Dongtan Sacred Heart Hospital"
      }
    ]
  }
}