{
  "kids": {
    "free": [
      {
        "name": "동탄센트럴파크",
        "name_en": "Dongtan Central Park",
        "lat": 37.205257,
        "lng": 127.078618,
        "address": "경기도 화성시 동탄공원로25",
        "price": "무료",
        "price_en": "Free",
        "parking": "공원 내 주차장 이용 가능 (유료)"
      },
      {
        "name": "동탄호수공원",
        "name_en": "Dongtan Lake Park",
        "lat": 37.165562,
        "lng": 127.093546,
        "address": "경기도 화성시 동탄대로555번길 10",
        "price": "무료",
        "price_en": "Free",
        "parking": "공원 내 주차장 이용 가능 (유료)"
      },
      {
        "name": "동탄역 루나쇼",
        "name_en": "Dongtan Station Luna Show",
        "lat": 37.198158,
        "lng": 127.076303,
        "address": "경기도 화성시 동탄역로 1",
        "price": "무료 (공연 시간 확인 필요)",
        "price_en": "Free (Show times vary)",
        "parking": "동탄역 환승 주차장 이용 (유료)"
      },
      {
        "name": "동탄 물향기수목원",
        "name_en": "Dongtan Mulhyanggi Arboretum",
        "lat": 37.220988,
        "lng": 127.094017,
        "address": "경기도 오산시 벌음1길 45",
        "price": "무료",
        "price_en": "Free",
        "parking": "수목원 내 주차장 이용 가능 (유료)"
      },
      {
        "name": "신갈저수지 (동탄 근교)",
        "name_en": "Singal Reservoir (Near Dongtan)",
        "lat": 37.128189,
        "lng": 127.068977,
        "address": "경기도 용인시 기흥구 신갈동 348-1",
        "price": "무료",
        "price_en": "Free",
        "parking": "주변 노상 주차 또는 유료 주차장 이용"
      },
      {
        "name": "화성시립도서관 (동탄)",
        "name_en": "Hwaseong City Library (Dongtan)",
        "lat": 37.204732,
        "lng": 127.084356,
        "address": "경기도 화성시 동탄복합문화로 62",
        "price": "무료",
        "price_en": "Free",
        "parking": "도서관 주차장 이용 가능 (유료)"
      }
    ],
    "paid": [
      {
        "name": "동탄아트스페이스",
        "name_en": "Dongtan Art Space",
        "lat": 37.201761,
        "lng": 127.074077,
        "address": "경기도 화성시 동탄반석로 171",
        "price": "유료 (전시별 상이)",
        "price_en": "Paid (Varies by exhibition)",
        "parking": "건물 내 주차장 이용 가능 (유료)"
      },
      {
        "name": "동탄 꿈의 오케스트라",
        "name_en": "Dongtan Dream Orchestra",
        "lat": 37.202642,
        "lng": 127.082304,
        "address": "경기도 화성시 동탄복합문화로 62",
        "price": "유료 (강좌/프로그램별 상이)",
        "price_en": "Paid (Varies by course/program)",
        "parking": "동탄복합문화센터 주차장 이용 (유료)"
      },
      {
        "name": "키즈앤조이 동탄점",
        "name_en": "Kids & Joy Dongtan",
        "lat": 37.181953,
        "lng": 127.078804,
        "address": "경기도 화성시 동탄대로 218",
        "price": "유료 (시간별/인원별 상이)",
        "price_en": "Paid (Varies by time/person)",
        "parking": "건물 내 주차장 이용 가능 (유료)"
      },
      {
        "name": "상상아트 동탄점",
        "name_en": "Imagination Art Dongtan",
        "lat": 37.175748,
        "lng": 127.076901,
        "address": "경기도 화성시 동탄순환대로 164",
        "price": "유료 (프로그램별 상이)",
        "price_en": "Paid (Varies by program)",
        "parking": "건물 내 주차장 이용 가능 (유료)"
      },
      {
        "name": "트램폴린파크 동탄점",
        "name_en": "Trampoline Park Dongtan",
        "lat": 37.187997,
        "lng": 127.084521,
        "address": "경기도 화성시 동탄반석로 157",
        "price": "유료 (시간별 상이)",
        "price_en": "Paid (Varies by time)",
        "parking": "건물 내 주차장 이용 가능 (유료)"
      },
      {
        "name": "롯데시네마 동탄",
        "name_en": "Lotte Cinema Dongtan",
        "lat": 37.197962,
        "lng": 127.076061,
        "address": "경기도 화성시 동탄대로 212",
        "price": "유료 (영화별 상이)",
        "price_en": "Paid (Varies by movie)",
        "parking": "건물 내 주차장 이용 가능 (유료)"
      }
    ]
  },
  "food": {
    "breakfast": [
      {
        "name": "김가네 동탄점",
        "name_en": "Kimganae Dongtan",
        "lat": 37.192945,
        "lng": 127.077836,
        "address": "경기도 화성시 동탄반석로 138",
        "menu": "김밥, 떡볶이, 라면",
        "menu_en": "Kimbap, Tteokbokki, Ramyeon",
        "parking": "건물 내 주차장 이용 가능 (유료)"
      },
      {
        "name": "봉평메밀촌",
        "name_en": "Bongpyeong Memilchon",
        "lat": 37.201723,
        "lng": 127.083382,
        "address": "경기도 화성시 동탄반석로 127",
        "menu": "메밀국수, 만두",
        "menu_en": "Buckwheat Noodles, Dumplings",
        "parking": "건물 내 주차장 이용 가능 (유료)"
      },
      {
        "name": "본죽 동탄시범단지점",
        "name_en": "Bonjuk Dongtan Sibeomdanji",
        "lat": 37.203139,
        "lng": 127.084097,
        "address": "경기도 화성시 동탄대로 578",
        "menu": "각종 죽",
        "menu_en": "Various Porridge",
        "parking": "건물 주변 주차 공간 이용"
      },
      {
        "name": "정성본 쭈꾸미 동탄점",
        "name_en": "Jeongseongbon Jjukkumi Dongtan",
        "lat": 37.193086,
        "lng": 127.080995,
        "address": "경기도 화성시 동탄대로 225",
        "menu": "쭈꾸미 정식",
        "menu_en": "Spicy Stir-fried Baby Octopus Set",
        "parking": "건물 내 주차장 이용 가능 (유료)"
      }
    ],
    "lunch": [
      {
        "name": "고봉민김밥인 동탄2신도시점",
        "name_en": "Gobongmin Kimbap In Dongtan 2",
        "lat": 37.177524,
        "lng": 127.086417,
        "address": "경기도 화성시 동탄대로 287",
        "menu": "김밥, 돈까스",
        "menu_en": "Kimbap, Pork Cutlet",
        "parking": "건물 내 주차장 이용 가능 (유료)"
      },
      {
        "name": "명동칼국수 동탄점",
        "name_en": "Myeongdong Kalguksu Dongtan",
        "lat": 37.193213,
        "lng": 127.079578,
        "address": "경기도 화성시 동탄반석로 126",
        "menu": "칼국수, 만두",
        "menu_en": "Kalguksu, Dumplings",
        "parking": "건물 내 주차장 이용 가능 (유료)"
      },
      {
        "name": "한촌설렁탕 동탄점",
        "name_en": "Hanchon Seolleongtang Dongtan",
        "lat": 37.188494,
        "lng": 127.075031,
        "address": "경기도 화성시 동탄반석로 148",
        "menu": "설렁탕, 갈비탕",
        "menu_en": "Seolleongtang, Galbitang",
        "parking": "건물 내 주차장 이용 가능 (유료)"
      },
      {
        "name": "두끼 동탄점",
        "name_en": "Dookki Dongtan",
        "lat": 37.176002,
        "lng": 127.085766,
        "address": "경기도 화성시 동탄대로 271",
        "menu": "즉석 떡볶이 뷔페",
        "menu_en": "Tteokbokki Buffet",
        "parking": "건물 내 주차장 이용 가능 (유료)"
      }
    ],
    "dinner": [
      {
        "name": "마포갈매기 동탄점",
        "name_en": "Mapo Galmaegi Dongtan",
        "lat": 37.193202,
        "lng": 127.079241,
        "address": "경기도 화성시 동탄반석로 125",
        "menu": "돼지갈매기살, 삼겹살",
        "menu_en": "Pork Rib Meat, Pork Belly",
        "parking": "건물 내 주차장 이용 가능 (유료)"
      },
      {
        "name": "시골집 동탄점",
        "name_en": "Sigoljip Dongtan",
        "lat": 37.201889,
        "lng": 127.083929,
        "address": "경기도 화성시 동탄대로 559",
        "menu": "한정식, 비빔밥",
        "menu_en": "Korean Set Meal, Bibimbap",
        "parking": "건물 내 주차장 이용 가능 (유료)"
      },
      {
        "name": "화성 족발보쌈",
        "name_en": "Hwaseong Jokbal Bossam",
        "lat": 37.180401,
        "lng": 127.075237,
        "address": "경기도 화성시 동탄반석로 158",
        "menu": "족발, 보쌈",
        "menu_en": "Pig's Trotters, Bossam",
        "parking": "건물 내 주차장 이용 가능 (유료)"
      },
      {
        "name": "동탄 해물찜",
        "name_en": "Dongtan Seafood Stew",
        "lat": 37.174403,
        "lng": 127.075541,
        "address": "경기도 화성시 동탄순환대로 212",
        "menu": "해물찜, 아구찜",
        "menu_en": "Spicy Seafood Stew, Spicy Monkfish Stew",
        "parking": "건물 내 주차장 이용 가능 (유료)"
      }
    ]
  },
  "cafe": [
    {
      "name": "스타벅스 동탄역DT점",
      "name_en": "Starbucks Dongtan Station DT",
      "lat": 37.199218,
      "lng": 127.077706,
      "address": "경기도 화성시 동탄역로 5",
      "feature": "드라이브 스루, 넓은 좌석",
      "feature_en": "Drive-thru, Spacious seating",
      "parking": "건물 내 주차장 이용 가능 (유료)"
    },
    {
      "name": "투썸플레이스 동탄호수공원점",
      "name_en": "A Twosome Place Dongtan Lake Park",
      "lat": 37.165478,
      "lng": 127.093215,
      "address": "경기도 화성시 동탄대로 555번길 10",
      "feature": "호수 뷰, 베이커리",
      "feature_en": "Lake view, Bakery",
      "parking": "건물 내 주차장 이용 가능 (유료)"
    },
    {
      "name": "이디야커피 동탄센트럴파크점",
      "name_en": "EDIYA COFFEE Dongtan Central Park",
      "lat": 37.205087,
      "lng": 127.079071,
      "address": "경기도 화성시 동탄공원로 13",
      "feature": "공원 근처, 테라스 좌석",
      "feature_en": "Near park, Terrace seating",
      "parking": "건물 내 주차장 이용 가능 (유료)"
    },
    {
      "name": "카페 하이픈 동탄점",
      "name_en": "Cafe Hyphen Dongtan",
      "lat": 37.194887,
      "lng": 127.083021,
      "address": "경기도 화성시 동탄대로 202",
      "feature": "디저트 맛집, 아늑한 분위기",
      "feature_en": "Dessert specialty, Cozy atmosphere",
      "parking": "건물 내 주차장 이용 가능 (유료)"
    },
    {
      "name": "할리스커피 동탄솔빛나루점",
      "name_en": "Hollys Coffee Dongtan Solbitnaru",
      "lat": 37.173489,
      "lng": 127.086048,
      "address": "경기도 화성시 동탄대로 275",
      "feature": "넓은 공간, 스터디하기 좋음",
      "feature_en": "Spacious, Good for studying",
      "parking": "건물 내 주차장 이용 가능 (유료)"
    },
    {
      "name": "파스쿠치 동탄우성타워점",
      "name_en": "Pascucci Dongtan Woosung Tower",
      "lat": 37.192707,
      "lng": 127.076551,
      "address": "경기도 화성시 동탄반석로 136",
      "feature": "이탈리안 브런치, 넓은 창가 좌석",
      "feature_en": "Italian brunch, Large window seats",
      "parking": "건물 내 주차장 이용 가능 (유료)"
    }
  ],
  "health": {
    "hospitals": [
      {
        "name": "메타폴리스 병원",
        "name_en": "Metapollis Hospital",
        "lat": 37.199511,
        "lng": 127.075251,
        "address": "경기도 화성시 동탄반석로 175",
        "time": "24시간 (응급실)",
        "time_en": "24 hours (Emergency Room)",
        "info": "종합병원",
        "info_en": "General Hospital"
      },
      {
        "name": "동탄제일병원",
        "name_en": "Dongtan Jeil Hospital",
        "lat": 37.188285,
        "lng": 127.077935,
        "address": "경기도 화성시 동탄대로 201",
        "time": "평일 09:00-18:00, 토요일 09:00-13:00",
        "time_en": "Weekdays 09:00-18:00, Saturdays 09:00-13:00",
        "info": "산부인과, 소아청소년과",
        "info_en": "Obstetrics & Gynecology, Pediatrics"
      },
      {
        "name": "동탄시티병원",
        "name_en": "Dongtan City Hospital",
        "lat": 37.172642,
        "lng": 127.085779,
        "address": "경기도 화성시 동탄대로 267",
        "time": "평일 09:00-17:30",
        "time_en": "Weekdays 09:00-17:30",
        "info": "정형외과, 내과",
        "info_en": "Orthopedics, Internal Medicine"
      }
    ],
    "pharmacies": [
      {
        "name": "메트로약국",
        "name_en": "Metro Pharmacy",
        "lat": 37.199365,
        "lng": 127.075334,
        "address": "경기도 화성시 동탄반석로 175",
        "time": "연중무휴 08:00-22:00",
        "time_en": "Open all year 08:00-22:00",
        "info": "메트로폴리스 내 위치",
        "info_en": "Located within Metapollis"
      },
      {
        "name": "동탄드림약국",
        "name_en": "Dongtan Dream Pharmacy",
        "lat": 37.188407,
        "lng": 127.077895,
        "address": "경기도 화성시 동탄대로 201",
        "time": "평일 09:00-19:00, 토요일 09:00-15:00",
        "time_en": "Weekdays 09:00-19:00, Saturdays 09:00-15:00",
        "info": "동탄제일병원 옆",
        "info_en": "Next to Dongtan Jeil Hospital"
      },
      {
        "name": "연세프라자약국",
        "name_en": "Yonsei Plaza Pharmacy",
        "lat": 37.172527,
        "lng": 127.085648,
        "address": "경기도 화성시 동탄대로 267",
        "time": "평일 09:00-18:30, 토요일 09:00-13:00",
        "time_en": "Weekdays 09:00-18:30, Saturdays 09:00-13:00",
        "info": "동탄시티병원 근처",
        "info_en": "Near Dongtan City Hospital"
      }
    ]
  }
}