{
  "kids": {
    "free": [
      {
        "name": "동탄 센트럴파크",
        "name_en": "Dongtan Central Park",
        "lat": 37.207145,
        "lng": 127.080333,
        "address": "경기도 화성시 동탄공원로 211",
        "price": "무료",
        "price_en": "Free",
        "parking": "공영주차장 이용 가능 (유료)"
      },
      {
        "name": "동탄 방음터널 공원",
        "name_en": "Dongtan Soundproofing Tunnel Park",
        "lat": 37.22654,
        "lng": 127.06701,
        "address": "경기도 화성시 반송동 940-10",
        "price": "무료",
        "price_en": "Free",
        "parking": "인근 노상 주차 또는 상가 주차장 이용"
      },
      {
        "name": "동탄 푸른숲 도서관",
        "name_en": "Dongtan Pureun Forest Library",
        "lat": 37.19891,
        "lng": 127.0944,
        "address": "경기도 화성시 동탄순환대로2길 35",
        "price": "무료",
        "price_en": "Free",
        "parking": "건물 내 지하주차장 이용 가능"
      },
      {
        "name": "동탄호수공원",
        "name_en": "Dongtan Lake Park",
        "lat": 37.15698,
        "lng": 127.09725,
        "address": "경기도 화성시 동탄대로557번길 21",
        "price": "무료",
        "price_en": "Free",
        "parking": "주차타워 이용 가능 (유료)"
      },
      {
        "name": "동탄 키즈카페 (실내 놀이터)",
        "name_en": "Dongtan Kids Cafe (Indoor Playground)",
        "lat": 37.2038,
        "lng": 127.0798,
        "address": "경기도 화성시 동탄반석로 174",
        "price": "무료 (일부 체험존)",
        "price_en": "Free (some activity zones)",
        "parking": "건물 내 주차장 이용 가능"
      },
      {
        "name": "동탄 어린이 도서관",
        "name_en": "Dongtan Children's Library",
        "lat": 37.2038,
        "lng": 127.0798,
        "address": "경기도 화성시 동탄솔빛로 62",
        "price": "무료",
        "price_en": "Free",
        "parking": "건물 내 주차장 이용 가능"
      }
    ],
    "paid": [
      {
        "name": "롯데월드 어드벤처 동탄",
        "name_en": "Lotte World Adventure Dongtan",
        "lat": 37.19542,
        "lng": 127.08523,
        "address": "경기도 화성시 동탄대로 410",
        "price": "종일권 40,000원 ~",
        "price_en": "Full-day pass from 40,000 KRW",
        "parking": "건물 내 주차장 이용 가능 (유료)"
      },
      {
        "name": "키즈월드 동탄점",
        "name_en": "Kids World Dongtan Branch",
        "lat": 37.2089,
        "lng": 127.0745,
        "address": "경기도 화성시 동탄대로 199",
        "price": "3시간 18,000원 ~",
        "price_en": "3 hours from 18,000 KRW",
        "parking": "건물 내 주차장 이용 가능"
      },
      {
        "name": "점핑몬스터 동탄점",
        "name_en": "Jumping Monster Dongtan Branch",
        "lat": 37.20631,
        "lng": 127.0765,
        "address": "경기도 화성시 동탄중앙로 200",
        "price": "1시간 10,000원 ~",
        "price_en": "1 hour from 10,000 KRW",
        "parking": "건물 내 주차장 이용 가능"
      },
      {
        "name": "상상나라 동탄",
        "name_en": "Sangsang Nara Dongtan",
        "lat": 37.2115,
        "lng": 127.0655,
        "address": "경기도 화성시 동탄대로 212",
        "price": "2시간 15,000원 ~",
        "price_en": "2 hours from 15,000 KRW",
        "parking": "건물 내 주차장 이용 가능"
      },
      {
        "name": "다이나믹메이즈 동탄",
        "name_en": "Dynamic Maze Dongtan",
        "lat": 37.19542,
        "lng": 127.08523,
        "address": "경기도 화성시 동탄대로 410 (롯데백화점)",
        "price": "1시간 18,000원 ~",
        "price_en": "1 hour from 18,000 KRW",
        "parking": "롯데백화점 주차장 이용 가능 (유료)"
      },
      {
        "name": "바운스 트램폴린 파크 동탄",
        "name_en": "Bounce Trampoline Park Dongtan",
        "lat": 37.2002,
        "lng": 127.0843,
        "address": "경기도 화성시 동탄역로 122",
        "price": "1시간 15,000원 ~",
        "price_en": "1 hour from 15,000 KRW",
        "parking": "건물 내 주차장 이용 가능"
      }
    ]
  },
  "food": {
    "breakfast": [
      {
        "name": "고봉민김밥 동탄1호점",
        "name_en": "Gobongmin Kimbap Dongtan Branch 1",
        "lat": 37.2048,
        "lng": 127.0685,
        "address": "경기도 화성시 반송동 104-1",
        "menu": "김밥, 라면, 떡볶이",
        "menu_en": "Kimbap, Ramyeon, Tteokbokki",
        "parking": "인근 공영주차장 이용"
      },
      {
        "name": "홍콩반점0410 동탄점",
        "name_en": "Hongkong Banjum0410 Dongtan Branch",
        "lat": 37.2048,
        "lng": 127.0685,
        "address": "경기도 화성시 반송동 104-1",
        "menu": "짜장면, 짬뽕, 탕수육",
        "menu_en": "Jjajangmyeon, Jjamppong, Tangsuyuk",
        "parking": "건물 주차장 이용 가능"
      },
      {
        "name": "새마을식당 동탄점",
        "name_en": "Semaul Restaurant Dongtan Branch",
        "lat": 37.2048,
        "lng": 127.0685,
        "address": "경기도 화성시 반송동 104-1",
        "menu": "7분 돼지김치, 열탄불고기",
        "menu_en": "7-Minute Pork Kimchi Stew, Yeoltang Bulgogi",
        "parking": "건물 내 주차장 이용 가능"
      },
      {
        "name": "본죽 동탄목동점",
        "name_en": "Bonjuk Dongtan Mokdong Branch",
        "lat": 37.1995,
        "lng": 127.1285,
        "address": "경기도 화성시 목동 463-1",
        "menu": "죽 (다양한 종류)",
        "menu_en": "Juk (Porridge) (Various types)",
        "parking": "건물 내 주차장 이용 가능"
      }
    ],
    "lunch": [
      {
        "name": "마포갈매기 동탄점",
        "name_en": "Mapo Galmaegi Dongtan Branch",
        "lat": 37.2048,
        "lng": 127.0685,
        "address": "경기도 화성시 반송동 104-1",
        "menu": "갈매기살, 삼겹살",
        "menu_en": "Galmaegisal, Samgyeopsal",
        "parking": "건물 내 주차장 이용 가능"
      },
      {
        "name": "소곱창이야기 동탄",
        "name_en": "So Gopchang Iyagi Dongtan",
        "lat": 37.2065,
        "lng": 127.0680,
        "address": "경기도 화성시 반송동 27",
        "menu": "소곱창, 소대창",
        "menu_en": "Beef Tripe, Beef Large Intestine",
        "parking": "건물 내 주차장 이용 가능"
      },
      {
        "name": "서브웨이 동탄역점",
        "name_en": "Subway Dongtan Station Branch",
        "lat": 37.1985,
        "lng": 127.0945,
        "address": "경기도 화성시 오산동 967-150",
        "menu": "샌드위치",
        "menu_en": "Sandwiches",
        "parking": "건물 주차장 이용 가능 (유료)"
      },
      {
        "name": "명륜진사갈비 동탄점",
        "name_en": "Myeongnyun Jinsagalbi Dongtan Branch",
        "lat": 37.2045,
        "lng": 127.0690,
        "address": "경기도 화성시 반송동 91-5",
        "menu": "돼지갈비 무한리필",
        "menu_en": "Pork Ribs Unlimited Refill",
        "parking": "건물 내 주차장 이용 가능"
      }
    ],
    "dinner": [
      {
        "name": "화평동 냉면 동탄점",
        "name_en": "Hwapyung-dong Naengmyeon Dongtan Branch",
        "lat": 37.2045,
        "lng": 127.0712,
        "address": "경기도 화성시 동탄반송3길 36-10",
        "menu": "함흥냉면, 만두",
        "menu_en": "Hamheung Naengmyeon, Mandu",
        "parking": "건물 내 주차장 이용 가능"
      },
      {
        "name": "동탄참치",
        "name_en": "Dongtan Tuna",
        "lat": 37.2052,
        "lng": 127.0725,
        "address": "경기도 화성시 반송동 북광장 인근",
        "menu": "참치회, 초밥",
        "menu_en": "Tuna Sashimi, Sushi",
        "parking": "건물 내 주차장 이용 가능"
      },
      {
        "name": "화성 조개구이",
        "name_en": "Hwaseong Grilled Shellfish",
        "lat": 37.1650,
        "lng": 126.6310,
        "address": "경기도 화성시 서신면 제부리 일대",
        "menu": "조개구이, 해산물",
        "menu_en": "Grilled Shellfish, Seafood",
        "parking": "건물 내 주차장 이용 가능"
      },
      {
        "name": "동탄 족발 보쌈",
        "name_en": "Dongtan Jokbal Bossam",
        "lat": 37.2045,
        "lng": 127.0712,
        "address": "경기도 화성시 동탄반송3길 36-10",
        "menu": "족발, 보쌈",
        "menu_en": "Pig's Trotters, Bossam",
        "parking": "건물 내 주차장 이용 가능"
      }
    ]
  },
  "cafe": [
    {
      "name": "스타벅스 동탄역점",
      "name_en": "Starbucks Dongtan Station Branch",
      "lat": 37.2001,
      "lng": 127.0955,
      "address": "경기도 화성시 동탄역 롯데백화점 내",
      "feature": "아기 의자, 넓은 좌석",
      "feature_en": "High chair, spacious seating",
      "parking": "건물 주차장 이용 가능 (유료)"
    },
    {
      "name": "투썸플레이스 동탄센트럴파크점",
      "name_en": "Twosome Place Dongtan Central Park Branch",
      "lat": 37.2058,
      "lng": 127.0685,
      "address": "경기도 화성시 동탄공원로2길 33-11",
      "feature": "테라스 좌석, 유아용 간식",
      "feature_en": "Terrace seating, baby snacks",
      "parking": "인근 공영주차장 이용"
    },
    {
      "name": "폴 바셋 동탄",
      "name_en": "Paul Bassett Dongtan",
      "lat": 37.2001,
      "lng": 127.0955,
      "address": "경기도 화성시 동탄역 롯데백화점 지하 1층",
      "feature": "유모차 주차 공간, 넓은 통로",
      "feature_en": "Stroller parking, wide aisles",
      "parking": "건물 내 주차장 이용 가능"
    },
    {
      "name": "할리스커피 동탄점",
      "name_en": "Hollys Coffee Dongtan Branch",
      "lat": 37.2048,
      "lng": 127.0718,
      "address": "경기도 화성시 반송동 93-1",
      "feature": "수유실, 어린이 메뉴",
      "feature_en": "Nursing room, kids' menu",
      "parking": "건물 내 주차장 이용 가능"
    },
    {
      "name": "이디야커피 동탄호수공원점",
      "name_en": "Ediya Coffee Dongtan Lake Park Branch",
      "lat": 37.1755,
      "lng": 127.1052,
      "address": "경기도 화성시 동탄대로6길 15",
      "feature": "유아용 식기, 아이들이 좋아하는 디저트",
      "feature_en": "Kid-friendly tableware, popular kids' desserts",
      "parking": "주차타워 이용 가능 (유료)"
    },
    {
      "name": "메가커피 동탄",
      "name_en": "Mega Coffee Dongtan",
      "lat": 37.2005,
      "lng": 127.0945,
      "address": "경기도 화성시 동탄역로 124",
      "feature": "간단한 간식, 아기 의자",
      "feature_en": "Simple snacks, high chair",
      "parking": "건물 내 주차장 이용 가능"
    }
  ],
  "health": {
    "hospitals": [
      {
        "name": "동탄제일병원",
        "name_en": "Dongtan Jeil Hospital",
        "lat": 37.1952,
        "lng": 127.0755,
        "address": "경기도 화성시 동탄솔빛로 48",
        "time": "평일 09:00~18:00, 토요일 09:00~13:00 (일요일 휴무)",
        "time_en": "Weekdays 09:00-18:00, Saturdays 09:00-13:00 (Closed Sundays)",
        "info": "야간/일요일 응급 진료 가능",
        "info_en": "Night/Sunday emergency care available"
      },
      {
        "name": "동탄시티병원",
        "name_en": "Dongtan City Hospital",
        "lat": 37.204,
        "lng": 127.078,
        "address": "경기도 화성시 동탄반석로 171",
        "time": "24시간 응급실 운영",
        "time_en": "24-hour emergency room operation",
        "info": "동탄 중심가 위치 종합병원",
        "info_en": "General hospital located in central Dongtan"
      },
      {
        "name": "한림대학교 동탄성심병원",
        "name_en": "Hallym University Dongtan Sacred Heart Hospital",
        "lat": 37.2165,
        "lng": 127.0792,
        "address": "경기도 화성시 큰재봉길 7",
        "time": "24시간 응급실 운영",
        "time_en": "24-hour emergency room operation",
        "info": "다양한 진료과 운영",
        "info_en": "Various medical departments available"
      }
    ],
    "pharmacies": [
      {
        "name": "동탄프라자약국",
        "name_en": "Dongtan Plaza Pharmacy",
        "lat": 37.2015,
        "lng": 127.0818,
        "address": "경기도 화성시 동탄대로 508",
        "time": "평일 09:00~19:00, 토요일 09:00~17:00",
        "time_en": "Weekdays 09:00-19:00, Saturdays 09:00-17:00",
        "info": "일반 의약품 및 처방 조제",
        "info_en": "Over-the-counter drugs and prescription dispensing"
      },
      {
        "name": "중앙약국",
        "name_en": "Jungang Pharmacy",
        "lat": 37.2048,
        "lng": 127.0775,
        "address": "경기도 화성시 동탄대로 492",
        "time": "평일 09:00~19:00, 토요일 09:00~18:00",
        "time_en": "Weekdays 09:00-19:00, Saturdays 09:00-18:00",
        "info": "상가 밀집 지역 내 위치",
        "info_en": "Located within a commercial district"
      },
      {
        "name": "행복한약국",
        "name_en": "Haengbokhan Pharmacy",
        "lat": 37.1565,
        "lng": 127.0975,
        "address": "경기도 화성시 동탄대로557번길 35",
        "time": "평일 09:30~18:30, 토요일 09:30~16:00",
        "time_en": "Weekdays 09:30-18:30, Saturdays 09:30-16:00",
        "info": "동탄호수공원 인근",
        "info_en": "Near Dongtan Lake Park"
      }
    ]
  }
}