{
  "free_places": [
    {
      "name": "서울 어린이대공원",
      "name_en": "Seoul Children's Grand Park",
      "lat": 37.548,
      "lng": 127.0801,
      "address": "서울특별시 광진구 능동로 216"
    },
    {
      "name": "서울숲",
      "name_en": "Seoul Forest",
      "lat": 37.5443,
      "lng": 127.0374,
      "address": "서울특별시 성동구 뚝섬로 273"
    },
    {
      "name": "국립중앙박물관 어린이박물관",
      "name_en": "Children's Museum of National Museum of Korea",
      "lat": 37.5238,
      "lng": 126.9796,
      "address": "서울특별시 용산구 서빙고로 137"
    },
    {
      "name": "전쟁기념관 어린이박물관",
      "name_en": "War Memorial of Korea Children's Museum",
      "lat": 37.5366,
      "lng": 126.9772,
      "address": "서울특별시 용산구 이태원로 29"
    },
    {
      "name": "반포한강공원",
      "name_en": "Banpo Hangang Park",
      "lat": 37.5098,
      "lng": 126.9946,
      "address": "서울특별시 서초구 신반포로11길 40"
    },
    {
      "name": "청계천",
      "name_en": "Cheonggyecheon Stream",
      "lat": 37.5694,
      "lng": 126.9784,
      "address": "서울특별시 종로구 창신동"
    },
    {
      "name": "송도 센트럴파크",
      "name_en": "Songdo Central Park",
      "lat": 37.3924,
      "lng": 126.6358,
      "address": "인천광역시 연수구 컨벤시아대로 160"
    },
    {
      "name": "지혜의 숲 (파주 출판도시)",
      "name_en": "Forest of Wisdom (Paju Book City)",
      "lat": 37.7088,
      "lng": 126.6852,
      "address": "경기도 파주시 회동길 145"
    },
    {
      "name": "안양예술공원",
      "name_en": "Anyang Art Park",
      "lat": 37.419,
      "lng": 126.9248,
      "address": "경기도 안양시 만안구 예술공원로 131"
    },
    {
      "name": "광화문광장",
      "name_en": "Gwanghwamun Square",
      "lat": 37.5716,
      "lng": 126.9768,
      "address": "서울특별시 종로구 세종대로 172"
    }
  ],
  "paid_places": [
    {
      "name": "에버랜드",
      "name_en": "Everland",
      "lat": 37.2939,
      "lng": 127.2026,
      "address": "경기도 용인시 처인구 포곡읍 에버랜드로 199",
      "price": "62,000원",
      "price_en": "62,000 KRW"
    },
    {
      "name": "롯데월드 어드벤처",
      "name_en": "Lotte World Adventure",
      "lat": 37.5111,
      "lng": 127.0982,
      "address": "서울특별시 송파구 올림픽로 240",
      "price": "62,000원",
      "price_en": "62,000 KRW"
    },
    {
      "name": "코엑스 아쿠아리움",
      "name_en": "COEX Aquarium",
      "lat": 37.5132,
      "lng": 127.0588,
      "address": "서울특별시 강남구 영동대로 513",
      "price": "33,000원",
      "price_en": "33,000 KRW"
    },
    {
      "name": "서울랜드",
      "name_en": "Seoul Land",
      "lat": 37.4341,
      "lng": 127.0201,
      "address": "경기도 과천시 광명로 181",
      "price": "49,000원",
      "price_en": "49,000 KRW"
    },
    {
      "name": "키자니아 서울",
      "name_en": "KidZania Seoul",
      "lat": 37.5113,
      "lng": 127.0981,
      "address": "서울특별시 송파구 올림픽로 240",
      "price": "45,000원",
      "price_en": "45,000 KRW"
    },
    {
      "name": "한국민속촌",
      "name_en": "Korean Folk Village",
      "lat": 37.259,
      "lng": 127.121,
      "address": "경기도 용인시 기흥구 민속촌로 90",
      "price": "32,000원",
      "price_en": "32,000 KRW"
    },
    {
      "name": "안성팜랜드",
      "name_en": "Anseong Farmland",
      "lat": 37.0135,
      "lng": 127.155,
      "address": "경기도 안성시 공도읍 대신두길 28",
      "price": "15,000원",
      "price_en": "15,000 KRW"
    },
    {
      "name": "아쿠아플라넷 63",
      "name_en": "Aqua Planet 63",
      "lat": 37.5194,
      "lng": 126.9402,
      "address": "서울특별시 영등포구 63로 50",
      "price": "27,000원",
      "price_en": "27,000 KRW"
    },
    {
      "name": "서울스카이",
      "name_en": "Seoul Sky",
      "lat": 37.5126,
      "lng": 127.1025,
      "address": "서울특별시 송파구 올림픽로 300",
      "price": "29,000원",
      "price_en": "29,000 KRW"
    },
    {
      "name": "쁘띠프랑스",
      "name_en": "Petite France",
      "lat": 37.7146,
      "lng": 127.4912,
      "address": "경기도 가평군 청평면 호반로 1063",
      "price": "12,000원",
      "price_en": "12,000 KRW"
    }
  ],
  "meals": {
    "breakfast": [
      {
        "name": "이삭토스트 명동성당점",
        "name_en": "Isaac Toast Myeongdong Cathedral",
        "lat": 37.5631,
        "lng": 126.9868,
        "address": "서울특별시 중구 명동10길 17-1",
        "menu": "햄치즈 스페셜 토스트",
        "menu_en": "Ham Special Toast"
      },
      {
        "name": "에그드랍 신사점",
        "name_en": "Egg Drop Sinsa",
        "lat": 37.5193,
        "lng": 127.0212,
        "address": "서울특별시 강남구 도산대로13길 31",
        "menu": "미스터 에그",
        "menu_en": "Mr. Egg Sandwich"
      },
      {
        "name": "버터핑거 팬케익스 강남점",
        "name_en": "Butterfinger Pancakes Gangnam",
        "lat": 37.5005,
        "lng": 127.0257,
        "address": "서울특별시 서초구 강남대로61길 13",
        "menu": "스플릿 디시젼 플레이트",
        "menu_en": "Split Decision Plate"
      }
    ],
    "lunch": [
      {
        "name": "명동교자 본점",
        "name_en": "Myeongdong Kyoja Main Store",
        "lat": 37.5625,
        "lng": 126.9856,
        "address": "서울특별시 중구 명동10길 29",
        "menu": "칼국수, 만두",
        "menu_en": "Kalguksu (Chopped Noodles), Dumplings"
      },
      {
        "name": "토속촌 삼계탕",
        "name_en": "Tosokchon Samgyetang",
        "lat": 37.5777,
        "lng": 126.9717,
        "address": "서울특별시 종로구 자하문로5길 5",
        "menu": "삼계탕",
        "menu_en": "Ginseng Chicken Soup"
      },
      {
        "name": "스쿨푸드 가로수길점",
        "name_en": "School Food Garosugil",
        "lat": 37.5204,
        "lng": 127.0228,
        "address": "서울특별시 강남구 도산대로13길 13",
        "menu": "마리(김밥), 떡볶이",
        "menu_en": "Mari (Mini Rolls), Tteokbokki"
      }
    ],
    "dinner": [
      {
        "name": "단풍나무집 이태원점",
        "name_en": "Maple Tree House Itaewon",
        "lat": 37.5348,
        "lng": 126.9939,
        "address": "서울특별시 용산구 이태원로27가길 26",
        "menu": "양념 갈비, 삼겹살",
        "menu_en": "Marinated Ribs, Pork Belly"
      },
      {
        "name": "빕스 제일제당센터점",
        "name_en": "VIPS CJ Foodworld Store",
        "lat": 37.563,
        "lng": 127.003,
        "address": "서울특별시 중구 마른내로 107",
        "menu": "스테이크 & 샐러드바",
        "menu_en": "Steak & Salad Bar"
      },
      {
        "name": "봉피양 방이점",
        "name_en": "Bongpiyang Bangi",
        "lat": 37.5088,
        "lng": 127.1218,
        "address": "서울특별시 송파구 양재대로71길 1-4",
        "menu": "돼지갈비, 평양냉면",
        "menu_en": "Grilled Pork Ribs, Pyongyang Naengmyeon"
      }
    ]
  }
}